~Version Information
VERS  .          2.0                              :CWLS Log Ascii Standard - Version 2.0
WRAP  .          NO                               :One line per depth step
~Well Information Block
#MNEM.UNIT       Data Type                        Information
#---------       ---------                        -------------------------------
STRT  .F         1900.00000                       :START DEPTH
STOP  .F         3700.00000                       :STOP DEPTH
STEP  .F          0.50000                         :INCREMENT
NULL  .          -999.25                          :NULL DATA VALUE
COMP  .                                           :COMPANY
WELL  .          Cinta_H-01                       :WELL
FLD   .          Cinta                            :FIELD
LOC   .                                           :LOCATION
PROV  .                                           :PROVINCE
STAT  .                                           :STATE
CNTY  .                                           :COUNTY
CTRY  .                                           :COUNTRY
DATE  .                                           :DATE
UWI   .          ID0100133000                     :UNIQUE WELL UWI
LIC   .                                           :LICENSE NUMBER
API   .                                           :API NUMBER
SRVC  .          SLB                              :SERVICE COMPANY
~Parameter Information Block
#MNEM.UNIT       Value                            Description
#---------       ---------                        -------------
LONG  .DEG       106.273981                       :Well Surface Location
LATI  .DEG       -5.423425                        :Well Surface Location
XWELL .M         308784.920000                    :X-coordinate of Well Head
YWELL .M         9400315.870000                   :Y-coordinate of Well Head
~Curve Information Block
#MNEM.UNIT       API Code            Curve    Description
#--------        --------------      -----    -------------------
DEPT  .F                             :0       Index
ILD   .OHMM                          :1       Induction Deep Resistivity    
RHOB  .G/C3                          :2       Bulk Density                  
DRHO  .G/C3                          :3       Bulk Density Correction       
CALI  .IN                            :4       Caliper                       
NPHI  .V/V                           :5       Thermal Neutron Porosity (original Ratio Method) in Selected Lithology
PROX  .OHMM                          :6       Proximity Resistivity (MPT)   
SN    .OHMM                          :7       Short Normal Resistivity (16 inch spacing)
SP    .MV                            :8       Spontaneous Potential         
GR    .GAPI                          :9       Gamma Ray                     
DT    .US/F                          :10      Delta-T (also called Slowness or Interval Transit Time)
~Ascii Data Section
# ...
   2654.00000       0.67320       2.04600       0.13200      14.13700       0.20837       1.16600       0.77900      30.68400      52.73700     142.42700 
   2654.50000       0.67200       2.05300       0.13200      14.24200       0.20837       1.24800       0.78000      30.98900      52.42600     140.57001 
   2655.00000       0.67320       2.05600       0.11700      14.30600       0.21315       1.18000       0.78000      31.02600      53.16400     141.49899 
   2655.50000       0.67320       2.05500       0.08100      13.60000       0.22749       1.21700       0.77900      31.03900      51.20300     144.94701 
   2656.00000       0.66779       2.10400       0.12400      13.17600       0.25060       1.15800       0.80800      30.75100      49.16900     149.05800 
   2656.50000       0.65796       2.08500       0.11500      13.20700       0.31514       1.18700       0.80600      30.45500      47.44100     154.76100 
   2657.00000       0.65004       2.05300       0.11800      13.30900       0.44183       1.20200       0.79900      30.77900      46.44800     154.76100 
   2657.50000       0.64340       2.03500       0.12100      13.34700       0.50558       1.08900       0.76100      30.98400      45.15400     155.29201 
   2658.00000       0.63905       2.02500       0.12100      13.34000       0.48725       1.04900       0.72500      30.77300      44.82000     150.25200 
   2658.50000       0.63690       2.01800       0.11600      13.32000       0.45139       1.07500       0.72600      30.68900      46.19000     152.50700 
   2659.00000       0.63583       2.02500       0.13100      13.33300       0.42072       1.06200       0.72600      30.65700      45.56200     152.37399 
   2659.50000       0.63264       2.00500       0.12500      13.50200       0.39004       1.07500       0.72700      30.46700      44.75300     148.39500 
   2660.00000       0.63158       1.99700       0.11700      13.65200       0.30837       1.10200       0.72600      30.45200      44.88500     146.53799 
   2660.50000       0.63158       2.01900       0.13300      13.58600       0.22271       1.14400       0.72500      30.38200      46.53300     147.86501 
   2661.00000       0.62948       2.03300       0.11400      13.32100       0.19482       1.14400       0.77400      30.31600      49.36200     155.55701 
   2661.50000       0.62948       2.06300       0.11800      13.07900       0.18845       1.20200       0.77900      30.25200      48.86700     155.15900 
   2662.00000       0.62948       2.08600       0.12400      13.16800       0.18845       1.13000       0.77900      30.18900      48.66900     147.06900 
   2662.50000       0.62635       2.08200       0.13300      13.28900       0.19124       1.07500       0.77800      30.18800      48.65200     147.73199 
   2663.00000       0.62325       2.04200       0.09500      13.40100       0.19323       1.07500       0.75900      30.19100      46.98400     156.61800 
   2663.50000       0.61916       2.03400       0.11900      13.28900       0.20199       1.07500       0.75500      30.42000      45.74900     150.91499 
   2664.00000       0.61714       2.03100       0.15000      13.23000       0.20996       1.11600       0.72600      30.13900      44.96100     148.91901 
   2664.50000       0.61815       2.02800       0.16900      13.21400       0.20598       1.04900       0.72700      30.67200      45.53900     150.11900 
   2665.00000       0.62222       2.02200       0.14700      13.21300       0.20000       1.02300       0.72500      30.99500      45.27300     151.31300 
   2665.50000       0.62635       2.01700       0.16400      13.13400       0.20199       1.08900       0.72200      30.93600      45.67900     153.17000 
   2666.00000       0.63053       2.00000       0.15300      13.06400       0.20677       1.07500       0.78100      30.93400      46.17200     156.88300 
   2666.50000       0.63476       1.97900       0.14500      13.23800       0.20598       1.15800       0.77900      30.97600      47.05700     153.43500 
   2667.00000       0.63797       1.98300       0.11700      13.59400       0.20279       1.13000       0.78000      30.77500      48.01600     145.87500 
   2667.50000       0.64014       1.98000       0.06900      13.32000       0.20120       1.08900       0.78200      30.00900      49.07000     146.14101 
   2668.00000       0.63797       2.00500       0.05100      12.72200       0.20279       1.06900       0.75200      29.66400      49.42400     146.53799 
   2668.50000       0.62948       2.02000       0.04200      12.45700       0.19243       1.14400       0.75300      29.68000      49.34200     146.40601 
   2669.00000       0.62018       2.03000       0.02900      12.50300       0.19084       1.15800       0.75300      29.69500      49.25200     145.54401 
   2669.50000       0.60821       2.03300       0.01900      12.56800       0.19163       1.04900       0.75200      29.38600      49.68800     145.21201 
   2670.00000       0.59669       2.04400       0.00600      12.52800       0.19641       1.01800       0.74000      28.64100      50.03900     146.53799 
   2670.50000       0.58020       2.07100       0.03400      12.30800       0.20359       1.01000       0.69800      27.98300      49.84400     148.13000 
   2671.00000       0.56757       2.06900       0.03500      12.19000       0.21315       1.01000       0.70000      27.92100      51.13900     148.72701 
   2671.50000       0.55793       2.06100       0.03300      12.17800       0.22112       0.98600       0.67100      27.85700      52.49600     149.05800 
   2672.00000       0.54822       2.05600       0.03100      12.17900       0.22829       1.02300       0.67300      27.49900      52.50200     150.00500 
   2672.50000       0.53961       2.05300       0.03000      12.18000       0.23227       1.04900       0.67400      27.87900      52.11800     157.94400 
   2673.00000       0.53202       2.05200       0.03100      12.19400       0.22988       1.03600       0.67400      28.25800      51.71500     158.60699 
   2673.50000       0.53127       2.04000       0.03400      12.20600       0.22988       1.02300       0.67400      28.32300      51.54200     151.04800 
   2674.00000       0.53701       2.03000       0.03500      12.25500       0.22669       0.98600       0.67400      28.37300      49.78300     152.63901 
   2674.50000       0.55304       2.01700       0.06200      12.29000       0.23227       0.95000       0.67400      29.58100      48.08200     154.09801 
   2675.00000       0.57831       2.04300       0.11000      12.59600       0.24462       1.03600       0.67400      30.35900      47.38300     154.36301 
   2675.50000       0.61501       2.03800       0.13200      12.88800       0.25936       1.04900       0.68100      29.75600      47.61300     152.37399 
   2676.00000       0.65568       2.03800       0.16500      13.15800       0.27450       1.03600       0.71800      29.65600      49.06000     146.87000 
   2676.50000       0.66726       2.03300       0.15700      13.26700       0.26972       1.40300       0.75400      30.07600      48.45800     133.40800 
   2677.00000       0.70000       2.02600       0.12700      13.30900       0.26335       1.74500       0.79200      30.61700      46.73600     127.04200 
   2677.50000       0.72069       2.05400       0.14600      13.50900       0.26016       1.21700       0.86000      30.46600      46.15500     121.87000 
   2678.00000       0.74556       2.09300       0.16600      13.33100       0.26414       1.17300       0.88700      30.34600      44.39500     128.36900 
   2678.50000       0.76907       2.11800       0.19100      12.97400       0.28167       1.15800       0.88800      29.93500      46.21300     138.71400 
   2679.00000       0.77538       2.12200       0.21000      12.80400       0.29920       1.14400       0.82900      30.19900      48.33900     144.81400 
   2679.50000       0.76441       1.98200       0.13000      13.15000       0.30797       1.15800       0.83200      29.95700      52.73100     146.80400 
