~Version Information
VERS  .          2.0                              :CWLS Log Ascii Standard - Version 2.0
WRAP  .          NO                               :One line per depth step
~Well Information Block
#MNEM.UNIT       Data Type                        Information
#---------       ---------                        -------------------------------
STRT  .F         1900.00000                       :START DEPTH
STOP  .F         3700.00000                       :STOP DEPTH
STEP  .F          0.50000                         :INCREMENT
NULL  .          -999.25                          :NULL DATA VALUE
COMP  .                                           :COMPANY
WELL  .          Cinta_H-01                       :WELL
FLD   .          Cinta                            :FIELD
LOC   .                                           :LOCATION
PROV  .                                           :PROVINCE
STAT  .                                           :STATE
CNTY  .                                           :COUNTY
CTRY  .                                           :COUNTRY
DATE  .                                           :DATE
UWI   .          ID0100133000                     :UNIQUE WELL UWI
LIC   .                                           :LICENSE NUMBER
API   .                                           :API NUMBER
SRVC  .          SLB                              :SERVICE COMPANY
~Parameter Information Block
#MNEM.UNIT       Value                            Description
#---------       ---------                        -------------
LONG  .DEG       106.273981                       :Well Surface Location
LATI  .DEG       -5.423425                        :Well Surface Location
XWELL .M         308784.920000                    :X-coordinate of Well Head
YWELL .M         9400315.870000                   :Y-coordinate of Well Head
~Curve Information Block
#MNEM.UNIT       API Code            Curve    Description
#--------        --------------      -----    -------------------
DEPT  .F                             :0       Index
ILD   .OHMM                          :1       Induction Deep Resistivity    
RHOB  .G/C3                          :2       Bulk Density                  
DRHO  .G/C3                          :3       Bulk Density Correction       
CALI  .IN                            :4       Caliper                       
NPHI  .V/V                           :5       Thermal Neutron Porosity (original Ratio Method) in Selected Lithology
PROX  .OHMM                          :6       Proximity Resistivity (MPT)   
SN    .OHMM                          :7       Short Normal Resistivity (16 inch spacing)
SP    .MV                            :8       Spontaneous Potential         
GR    .GAPI                          :9       Gamma Ray                     
DT    .US/F                          :10      Delta-T (also called Slowness or Interval Transit Time)
~Ascii Data Section
# ...
   2992.00000       1.51200       2.15500      -0.00000      12.48500       0.32005       2.29300       1.43700      30.72000      47.06400     110.59700 
   2992.50000       1.59831       2.16400       0.00200      12.52600       0.32629       2.00000       1.42000      30.75000      48.33600     111.79000 
   2993.00000       1.61884       2.18100       0.01300      12.52500       0.33187       1.90300       1.37900      31.78500      48.08800     114.17800 
   2993.50000       1.59158       2.20000       0.01800      12.52300       0.33108       2.02500       1.36000      32.03100      48.11700     114.84100 
   2994.00000       1.53658       2.21000       0.02700      12.52300       0.33904       1.70200       1.38900      32.30600      48.81100     114.31000 
   2994.50000       1.45106       2.22000       0.03400      12.52300       0.33904       1.97500       1.38700      32.03300      49.72900     113.51500 
   2995.00000       1.33569       2.20700       0.02900      12.52300       0.31036       2.05000       1.36800      31.50100      47.35400     112.05600 
   2995.50000       1.22132       2.18700       0.01400      12.52400       0.31513       2.07600       1.31500      31.80600      46.31400     114.04500 
   2996.00000       1.11013       2.18900       0.02000      12.52500       0.30849       2.12800       1.23600      32.34500      45.71600     116.43200 
   2996.50000       0.99083       2.21100       0.02500      12.55300       0.30797       1.62000       1.13000      33.12200      45.25700     121.60500 
   2997.00000       0.93680       2.21600       0.02900      12.52500       0.32853       1.54100       1.03300      34.26500      45.39200     127.10900 
   2997.50000       0.84093       2.19400       0.03200      12.52100       0.36295       1.31100       0.93000      35.26300      44.50600     131.68401 
   2998.00000       0.77143       2.14100       0.02000      12.55700       0.37570       1.13000       0.83200      36.51000      44.29900     136.06100 
   2998.50000       0.73612       2.13900       0.02200      12.57500       0.38606       1.07500       0.80700      37.54600      44.38800     138.84599 
   2999.00000       0.70720       2.13900       0.04200      12.57300       0.38685       1.10200       0.80600      37.98500      44.09400     137.91800 
   2999.50000       0.69677       2.13000       0.05500      12.58400       0.39323       1.17300       0.80600      38.20800      43.80400     136.19400 
   3000.00000       0.69677       2.11600       0.04300      12.57600       0.38765       1.21800       0.80600      38.30400      42.96500     135.92799 
   3000.50000       0.70720       2.10600       0.03300      12.57500       0.38430       1.27900       0.80600      38.43200      41.20300     135.79601 
   3001.00000       0.71931       2.11700       0.03000      12.57500       0.38606       1.23300       0.80600      38.43800      40.59600     135.39799 
   3001.50000       0.74190       2.12800       0.03800      12.59500       0.38321       1.18700       0.80500      38.43100      43.17000     135.00000 
   3002.00000       0.75224       2.12200       0.03900      12.60100       0.38446       1.27900       0.79000      38.36500      44.60700     134.87100 
   3002.50000       0.76441       2.12600       0.04200      12.60200       0.37012       1.24800       0.81100      38.14600      44.85200     134.46899 
   3003.00000       0.77538       2.12200       0.03400      12.60200       0.36932       1.23300       0.83000      38.41200      43.09300     134.73500 
   3003.50000       0.78180       2.12400       0.02700      12.60200       0.35976       1.36100       0.86100      38.68000      42.26200     135.00000 
   3004.00000       0.78342       2.13400       0.03300      12.60200       0.35259       1.15800       0.85900      38.97500      41.03500     134.19800 
   3004.50000       0.77698       2.13900       0.03600      12.60200       0.34861       1.17300       0.88800      38.99000      41.27100     133.14301 
   3005.00000       0.77064       2.14500       0.03500      12.60300       0.36056       1.21700       0.88600      38.71100      41.28900     132.81200 
   3005.50000       0.76751       2.15800       0.03900      12.62300       0.37092       1.21700       0.88200      38.42400      42.29200     133.54100 
   3006.00000       0.76441       2.16900       0.04300      12.62900       0.37331       1.21700       0.83300      38.43100      42.29200     134.20399 
   3006.50000       0.76287       2.15600       0.03400      12.62900       0.37410       1.20200       0.83300      38.61000      42.09300     134.07201 
   3007.00000       0.75827       2.14300       0.03300      12.62900       0.37331       1.14400       0.83200      39.18900      41.20300     133.47501 
   3007.50000       0.75524       2.12800       0.03300      12.62800       0.37092       1.21700       0.83000      38.89400      39.49900     133.27600 
   3008.00000       0.75374       2.11900       0.01000      12.62700       0.37092       1.24800       0.86500      38.24200      36.36100     132.34700 
   3008.50000       0.75074       2.11400       0.00400      12.60900       0.35657       1.29500       0.88900      37.88900      36.31200     131.15401 
   3009.00000       0.75224       2.12500       0.02000      12.60900       0.35179       1.40400       0.91000      37.72400      37.94900     129.62900 
   3009.50000       0.75224       2.14600       0.03000      12.63000       0.33506       1.36100       0.91000      37.00100      39.54000     128.10300 
   3010.00000       0.74704       2.14900       0.02700      12.60000       0.32869       1.39500       0.88500      36.58500      40.86600     126.91000 
   3010.50000       0.73756       2.16000       0.02500      12.60200       0.36534       1.27900       0.86000      36.38300      41.34300     128.36900 
   3011.00000       0.72903       2.15500       0.01800      12.60200       0.37410       1.41300       0.86000      37.59700      42.13000     129.69501 
   3011.50000       0.72206       2.16100       0.02000      12.60400       0.38207       1.08900       0.83200      38.19500      42.53700     130.49100 
   3012.00000       0.72622       2.16300       0.01700      12.61800       0.37012       1.26300       0.80400      37.84500      43.19300     132.61301 
   3012.50000       0.74483       2.16200       0.02000      12.60300       0.35418       1.23300       0.80400      37.90200      43.88000     133.40800 
   3013.00000       0.77698       2.13700       0.01300      12.60400       0.34462       1.08900       0.83300      38.45700      44.20300     131.95000 
   3013.50000       0.81589       2.12700       0.01300      12.62300       0.32948       1.02300       0.88200      38.16000      44.12200     128.36900 
   3014.00000       0.85408       2.14300       0.03200      12.62900       0.33347       1.18100       0.95700      37.19300      45.14700     120.01300 
   3014.50000       0.87805       2.15800       0.04100      12.62900       0.33665       1.56000       1.04200      36.82100      45.35900     113.11700 
   3015.00000       0.90975       2.18400       0.04700      12.62900       0.33665       1.78900       1.04400      37.46900      44.70100     113.11700 
   3015.50000       0.95575       2.20900       0.03500      12.62900       0.31673       1.39500       1.07400      37.19800      44.74000     117.75900 
   3016.00000       1.03704       2.22600       0.01600      12.65600       0.31992       1.18700       1.04800      37.02000      45.27500     120.67600 
   3016.50000       1.06329       2.22600       0.02300      12.68200       0.32550       1.36100       1.06800      37.91400      47.77100     119.61500 
   3017.00000       1.05146       2.22400       0.04600      12.71000       0.32789       2.10200       1.07300      37.78100      48.85200     112.18800 
   3017.50000       1.03846       2.20300       0.04800      12.73700       0.30797       1.78900       1.16500      36.60000      49.51100     108.21000 
