~Version Information
VERS  .          2.0                              :CWLS Log Ascii Standard - Version 2.0
WRAP  .          NO                               :One line per depth step
~Well Information Block
#MNEM.UNIT       Data Type                        Information
#---------       ---------                        -------------------------------
STRT  .F         1900.00000                       :START DEPTH
STOP  .F         3700.00000                       :STOP DEPTH
STEP  .F          0.50000                         :INCREMENT
NULL  .          -999.25                          :NULL DATA VALUE
COMP  .                                           :COMPANY
WELL  .          Cinta_H-01                       :WELL
FLD   .          Cinta                            :FIELD
LOC   .                                           :LOCATION
PROV  .                                           :PROVINCE
STAT  .                                           :STATE
CNTY  .                                           :COUNTY
CTRY  .                                           :COUNTRY
DATE  .                                           :DATE
UWI   .          ID0100133000                     :UNIQUE WELL UWI
LIC   .                                           :LICENSE NUMBER
API   .                                           :API NUMBER
SRVC  .          SLB                              :SERVICE COMPANY
~Parameter Information Block
#MNEM.UNIT       Value                            Description
#---------       ---------                        -------------
LONG  .DEG       106.273981                       :Well Surface Location
LATI  .DEG       -5.423425                        :Well Surface Location
XWELL .M         308784.920000                    :X-coordinate of Well Head
YWELL .M         9400315.870000                   :Y-coordinate of Well Head
~Curve Information Block
#MNEM.UNIT       API Code            Curve    Description
#--------        --------------      -----    -------------------
DEPT  .F                             :0       Index
ILD   .OHMM                          :1       Induction Deep Resistivity    
RHOB  .G/C3                          :2       Bulk Density                  
DRHO  .G/C3                          :3       Bulk Density Correction       
CALI  .IN                            :4       Caliper                       
NPHI  .V/V                           :5       Thermal Neutron Porosity (original Ratio Method) in Selected Lithology
PROX  .OHMM                          :6       Proximity Resistivity (MPT)   
SN    .OHMM                          :7       Short Normal Resistivity (16 inch spacing)
SP    .MV                            :8       Spontaneous Potential         
GR    .GAPI                          :9       Gamma Ray                     
DT    .US/F                          :10      Delta-T (also called Slowness or Interval Transit Time)
~Ascii Data Section
# ...
   2082.00000       0.54585       1.80800       0.04200      12.92400       0.03546       0.93800       0.75400      16.05100      48.63400     191.43201 
   2082.50000       0.54039       1.81200       0.05100      12.83400      -0.00040       0.86000       0.75600      17.14000      49.74800     200.38499 
   2083.00000       0.53731       1.81700       0.06600      12.76900      -0.00040       0.96200       0.72600      17.15900      49.93600     191.56500 
   2083.50000       0.53503       1.80500       0.05900      12.66600      -0.00040       0.89300       0.72600      17.15200      49.82700     190.96800 
   2084.00000       0.53428       1.79400       0.05500      12.46900      -0.00040       0.96200       0.72700      17.09400      49.68500     190.17200 
   2084.50000       0.53352       1.82300       0.09500      12.48900      -0.00040       0.97400       0.70000      16.95800      49.63600     187.74899 
   2085.00000       0.53352       1.80900       0.08500      12.36400      -0.00040       0.93800       0.70100      17.20000      49.57700     185.71400 
   2085.50000       0.53277       1.80700       0.05100      12.14600      -0.00040       0.92600       0.67700      17.22500      49.54200     183.14301 
   2086.00000       0.53202       1.82400       0.07300      12.29400      -0.00040       0.93800       0.69800      17.49600      49.61000     188.18300 
   2086.50000       0.53352       1.80700       0.07100      12.31200      -0.00040       0.89300       0.70000      17.65500      49.24300     182.87801 
   2087.00000       0.53428       1.79400       0.05800      12.43600      -0.00040       0.95000       0.70000      17.26500      48.13900     188.18300 
   2087.50000       0.53579       1.77600       0.04700      12.57300      -0.00040       0.98600       0.70000      16.90000      48.54500     191.53200 
   2088.00000       0.53885       1.78300       0.04800      12.84100      -0.00040       0.92600       0.70000      16.72500      50.25300     196.40601 
   2088.50000       0.54116       1.80700       0.05700      13.22700      -0.00040       0.84900       0.70000      16.90400      49.82700     183.70700 
   2089.00000       0.54585       1.79900       0.04900      13.46200      -0.00040       0.82800       0.70000      16.89400      48.03400     178.63400 
   2089.50000       0.55269       1.80100       0.03500      12.89900      -0.00040       0.91500       0.70000      16.90200      48.57600     193.19000 
   2090.00000       0.55610       1.80500       0.02800      12.29200      -0.00040       0.87100       0.70000      17.12000      52.24700     199.45599 
   2090.50000       0.56129       1.80100       0.03600      12.80700      -0.00040       0.82800       0.70000      17.37800      51.57800     195.08000 
   2091.00000       0.56544       1.78400       0.02300      12.18100      -0.00040       1.03600       0.70000      17.58500      50.43800     203.03700 
   2091.50000       0.56714       1.73100       0.03300      12.21300      -0.00040       0.90400       0.70000      17.68000      49.19000     191.89700 
   2092.00000       0.56714       1.73400       0.06800      12.40400      -0.00040       0.82800       0.70000      17.92700      46.51300     195.34500 
   2092.50000       0.56460       1.74200       0.08400      12.83300      -0.00040       0.88200       0.70000      17.90400      46.01300     192.38901 
   2093.00000       0.56041       1.72300       0.06500      12.70800      -0.00040       0.81800       0.70000      17.76300      46.20500     188.84599 
   2093.50000       0.55547       1.74600       0.06300      12.51300      -0.00040       0.95000       0.70000      17.22000      47.26700     189.77499 
   2094.00000       0.55304       1.75200       0.06600      12.66100      -0.00040       0.92100       0.70200      17.36300      48.54700     186.45900 
   2094.50000       0.54830       1.80200       0.09100      12.85600      -0.00040       0.88200       0.67900      17.41500      49.14200     178.33600 
   2095.00000       0.54271       1.80900       0.11100      12.48400      -0.00040       0.89300       0.67100      17.40500      47.79000     185.74600 
   2095.50000       0.52756       1.80200       0.09900      12.21500      -0.00040       0.90400       0.67400      17.20800      46.84700     195.47701 
   2096.00000       0.52102       1.80000       0.09100      12.25600      -0.00040       0.87100       0.64500      17.03200      45.21900     190.43800 
   2096.50000       0.51816       1.79200       0.08700      12.27600      -0.00040       0.83900       0.64700      16.87700      44.55800     190.57001 
   2097.00000       0.51604       1.80900       0.09500      12.30100      -0.00040       0.87100       0.64700      17.09400      44.47500     189.77499 
   2097.50000       0.51745       1.81900       0.11900      12.44700      -0.00040       0.82800       0.64700      17.22300      45.80600     189.37700 
   2098.00000       0.52246       1.82300       0.11500      12.42300      -0.00040       0.79800       0.64700      17.44300      44.30500     187.52000 
   2098.50000       0.52978       1.81200       0.11800      12.57600      -0.00040       0.82800       0.64700      17.33900      43.51800     186.06100 
   2099.00000       0.53127       1.79600       0.08700      12.85100      -0.00040       0.97400       0.64700      17.21400      44.39600     185.39799 
   2099.50000       0.53503       1.80000       0.08500      12.91700      -0.00040       0.95000       0.64700      17.10600      45.10000     185.00000 
   2100.00000       0.54039       1.82500       0.09600      12.67800      -0.00040       0.89000       0.64700      16.92400      46.52900     184.86700 
   2100.50000       0.54743       1.80300       0.07400      12.58000      -0.00040       0.88200       0.64700      16.61500      49.31400     190.47099 
   2101.00000       0.54822       1.79500       0.06400      12.50900      -0.00040       0.84900       0.64700      16.62200      50.50000     202.10899 
   2101.50000       0.53885       1.82100       0.04900      12.66300      -0.00040       0.80800       0.64700      16.63200      49.53400     199.05800 
   2102.00000       0.53202       1.81400       0.04200      12.66200      -0.00040       0.84900       0.64800      16.34300      48.68400     192.29401 
   2102.50000       0.52830       1.82600       0.05800      12.39800      -0.00040       0.86000       0.65000      16.01200      47.58800     188.58099 
   2103.00000       0.52246       1.83500       0.06900      12.28200      -0.00040       0.82800       0.62000      16.08400      47.78300     202.17500 
   2103.50000       0.51959       1.82700       0.04900      12.36100      -0.00040       0.84900       0.62100      17.13500      49.53600     202.10899 
   2104.00000       0.51394       1.82200       0.04800      12.44300      -0.00040       0.80800       0.62100      17.16700      52.87600     202.24100 
   2104.50000       0.50933       1.84700       0.04700      12.48900      -0.00040       0.81800       0.62100      16.26300      52.09200     201.97600 
   2105.00000       0.50427       1.85400       0.04700      12.49300      -0.00040       0.77900       0.62100      16.63100      51.10500     200.31799 
   2105.50000       0.49967       1.85700       0.04700      12.31800      -0.00040       0.81800       0.61500      17.36800      50.52400     194.57800 
   2106.00000       0.49901       1.85500       0.04400      12.26900      -0.00040       0.80500       0.59600      17.02600      49.54200     185.79601 
   2106.50000       0.50299       1.88100       0.05900      12.26100      -0.00040       0.79800       0.59500      16.91900      47.93700     187.12199 
   2107.00000       0.51604       1.89200       0.08800      12.26000      -0.00040       0.81800       0.61900      17.62300      45.83800     186.59200 
   2107.50000       0.53579       1.88200       0.08000      12.34700      -0.00040       0.76900       0.62100      16.88900      45.01500     187.65300 
