~Version Information
VERS  .          2.0                              :CWLS Log Ascii Standard - Version 2.0
WRAP  .          NO                               :One line per depth step
~Well Information Block
#MNEM.UNIT       Data Type                        Information
#---------       ---------                        -------------------------------
STRT  .F         1900.00000                       :START DEPTH
STOP  .F         3700.00000                       :STOP DEPTH
STEP  .F          0.50000                         :INCREMENT
NULL  .          -999.25                          :NULL DATA VALUE
COMP  .                                           :COMPANY
WELL  .          Cinta_H-01                       :WELL
FLD   .          Cinta                            :FIELD
LOC   .                                           :LOCATION
PROV  .                                           :PROVINCE
STAT  .                                           :STATE
CNTY  .                                           :COUNTY
CTRY  .                                           :COUNTRY
DATE  .                                           :DATE
UWI   .          ID0100133000                     :UNIQUE WELL UWI
LIC   .                                           :LICENSE NUMBER
API   .                                           :API NUMBER
SRVC  .          SLB                              :SERVICE COMPANY
~Parameter Information Block
#MNEM.UNIT       Value                            Description
#---------       ---------                        -------------
LONG  .DEG       106.273981                       :Well Surface Location
LATI  .DEG       -5.423425                        :Well Surface Location
XWELL .M         308784.920000                    :X-coordinate of Well Head
YWELL .M         9400315.870000                   :Y-coordinate of Well Head
~Curve Information Block
#MNEM.UNIT       API Code            Curve    Description
#--------        --------------      -----    -------------------
DEPT  .F                             :0       Index
ILD   .OHMM                          :1       Induction Deep Resistivity    
RHOB  .G/C3                          :2       Bulk Density                  
DRHO  .G/C3                          :3       Bulk Density Correction       
CALI  .IN                            :4       Caliper                       
NPHI  .V/V                           :5       Thermal Neutron Porosity (original Ratio Method) in Selected Lithology
PROX  .OHMM                          :6       Proximity Resistivity (MPT)   
SN    .OHMM                          :7       Short Normal Resistivity (16 inch spacing)
SP    .MV                            :8       Spontaneous Potential         
GR    .GAPI                          :9       Gamma Ray                     
DT    .US/F                          :10      Delta-T (also called Slowness or Interval Transit Time)
~Ascii Data Section
# ...
   3226.00000       2.12958       2.49000       0.01500      14.12000       0.23466       4.31800       2.28400      26.12100      41.03600      96.53800 
   3226.50000       2.10585       2.46900       0.02700      14.15900       0.24263       3.36900       2.20600      25.41400      40.68500      98.79300 
   3227.00000       2.04878       2.42900       0.02800      14.20800       0.26255       3.60800       2.14200      25.60400      40.60100     100.71600 
   3227.50000       2.01600       2.39500       0.02800      14.24100       0.26892       4.31800       2.04100      26.24500      43.04300     104.03200 
   3228.00000       2.00531       2.38000       0.02300      14.25900       0.27371       3.05000       2.04600      26.60700      45.91400     105.55700 
   3228.50000       2.01600       2.37600       0.02700      14.27300       0.27291       2.59600       2.04900      27.17600      48.52900     106.22000 
   3229.00000       2.02681       2.36100       0.02900      14.27100       0.27849       2.56400       2.11500      26.30200      50.67700     103.30200 
   3229.50000       2.03773       2.35800       0.02900      14.30100       0.27689       2.76200       2.13000      26.30300      50.02400     100.38500 
   3230.00000       2.05994       2.39200       0.04000      14.30000       0.26175       2.80300       2.21500      26.64400      48.47300      96.80400 
   3230.50000       2.08264       2.44700       0.04600      14.29800       0.23785       2.90200       2.25200      26.60800      45.58900      96.80400 
   3231.00000       2.09418       2.46700       0.04000      14.27600       0.22988       3.16600       2.25800      25.63400      42.76000      95.34500 
   3231.50000       2.11765       2.49000       0.04700      14.32000       0.23386       3.20500       2.28800      26.24900      43.76100      96.53800 
   3232.00000       2.17867       2.49400       0.05000      14.32600       0.23625       3.12700       2.29000      27.00400      45.87400     102.75400 
   3232.50000       2.21701       2.49600       0.05600      14.32600       0.24024       3.20500       2.23200      26.49900      47.58600     108.34200 
   3233.00000       2.21701       2.49200       0.06900      14.32600       0.24821       2.86700       2.19800      26.21600      49.97700     105.42400 
   3233.50000       2.19131       2.47800       0.06300      14.32600       0.25299       2.35000       2.17800      27.77400      49.98900     101.57800 
   3234.00000       2.15384       2.45500       0.05200      14.34000       0.25777       2.15500       2.20800      29.58000      45.84700      91.16700 
   3234.50000       2.12958       2.46200       0.05400      14.32700       0.25458       5.00400       2.27000      29.33600      41.59700      82.08200 
   3235.00000       2.09418       2.48400       0.05700      14.32100       0.23705      11.58400       2.31100      28.60600      36.27300      86.39300 
   3235.50000       2.02681       2.50200       0.02300      14.30100       0.22829       7.18300       2.29200      28.62100      37.91500      92.82500 
   3236.00000       1.93350       2.50600       0.02700      14.29500       0.23466       3.57000       2.21100      28.82500      40.03000      99.85400 
   3236.50000       1.75406       2.45600       0.03300      14.27500       0.23705       2.97500       2.11500      29.08600      46.22200     104.09800 
   3237.00000       1.65427       2.41700       0.03100      14.32300       0.24741       2.86700       2.04300      30.73000      52.88500     103.30200 
   3237.50000       1.59831       2.39200       0.02700      14.32500       0.26494       3.01300       1.95500      32.16000      60.53700     107.28100 
   3238.00000       1.61884       2.39500       0.04100      14.35400       0.26574       2.50100       1.82000      33.19200      68.14300     126.77700 
   3238.50000       1.65427       2.39600       0.05300      14.35200       0.28008       1.92700       1.68600      34.24400      72.59900     145.47701 
   3239.00000       1.68374       2.38000       0.04300      14.35200       0.28327       1.69100       1.70800      34.68200      75.18700     114.90700 
   3239.50000       1.69127       2.37500       0.06500      14.35100       0.30319       1.90300       1.79600      34.77100      74.15400     108.54100 
   3240.00000       1.69888       2.37100       0.10100      14.32800       0.31833       1.85700       1.94200      33.87600      70.11800      91.10100 
   3240.50000       1.74596       2.35500       0.10300      14.27900       0.31275       1.83400       2.03800      31.84400      64.34300     100.78200 
   3241.00000       1.81295       2.34900       0.06700      14.23500       0.26733       1.93900       2.07500      31.44100      59.85300     122.79800 
   3241.50000       1.87593       2.34600       0.01100      13.97100       0.24343       2.07600       2.07800      31.19600      60.84800     114.57600 
   3242.00000       1.97389       2.35800       0.03200      14.01000       0.26096       2.05000       1.99000      30.48600      62.74200     121.47200 
   3242.50000       2.03773       2.31300       0.10900      14.11800       0.29442       1.83400       2.01300      30.76500      65.07100     113.64700 
   3243.00000       2.08264       2.23500       0.15200      14.26100       0.34143       1.70200       2.05600      31.77000      66.38700     110.68500 
   3243.50000       2.09418       2.14400       0.20200      14.30200       0.36375       1.97500       2.12600      32.58500      65.86900      99.85400 
   3244.00000       2.10585       2.07900       0.16800      14.30100       0.35578       2.48600       2.27200      33.37100      61.37200      97.33400 
   3244.50000       2.10585       2.09400       0.14100      14.23200       0.30876       3.08800       2.49500      33.65200      54.63800      94.41600 
   3245.00000       2.15384       2.21600       0.08200      14.18200       0.26255       4.08700       2.60800      33.64200      52.03800      99.45600 
   3245.50000       2.20408       2.33200       0.03000      14.08600       0.21554       4.82800       2.52300      33.65700      50.06000      96.00800 
   3246.00000       2.23009       2.41300       0.01400      14.06200       0.20757       3.22700       2.32700      33.48700      54.74400     105.02700 
   3246.50000       2.16619       2.44100       0.02600      14.06000       0.23307       2.47000       2.18000      33.68400      60.78000     110.19900 
   3247.00000       2.04878       2.43000       0.07200      14.08800       0.27291       2.23600       2.09900      33.36700      67.40200     113.71400 
   3247.50000       1.91392       2.40000       0.12200      14.14700       0.30916       2.50100       2.02500      33.68200      74.04100     119.21800 
   3248.00000       1.81941       2.36100       0.13400      14.12800       0.33028       2.76200       2.02000      33.14100      78.32000      73.85900 
   3248.50000       1.79573       2.31700       0.12000      14.20000       0.31514       2.64000       2.00300      32.34600      81.96400      75.58400 
   3249.00000       1.81295       2.32500       0.04800      14.31100       0.30478       2.35000       1.91000      32.36500      83.16400     123.46200 
   3249.50000       1.83942       2.33800       0.03400      14.35100       0.31434       2.12800       1.84100      32.54900      82.81400     125.18600 
   3250.00000       1.81295       2.35900       0.08100      14.37800       0.32847       2.10200       1.84100      33.31300      81.06800     113.38200 
   3250.50000       1.81295       2.35500       0.11200      14.36200       0.33267       2.15500       1.92600      33.46000      76.46500     100.38500 
   3251.00000       1.82169       2.35800       0.12300      14.35600       0.31434       2.32100       1.96700      32.32700      69.80500     103.17000 
   3251.50000       1.85749       2.35300       0.08100      14.33300       0.28805       3.01300       2.02200      31.08400      65.64000     104.09800 
