~Version Information
VERS  .          2.0                              :CWLS Log Ascii Standard - Version 2.0
WRAP  .          NO                               :One line per depth step
~Well Information Block
#MNEM.UNIT       Data Type                        Information
#---------       ---------                        -------------------------------
STRT  .F         1900.00000                       :START DEPTH
STOP  .F         3700.00000                       :STOP DEPTH
STEP  .F          0.50000                         :INCREMENT
NULL  .          -999.25                          :NULL DATA VALUE
COMP  .                                           :COMPANY
WELL  .          Cinta_H-01                       :WELL
FLD   .          Cinta                            :FIELD
LOC   .                                           :LOCATION
PROV  .                                           :PROVINCE
STAT  .                                           :STATE
CNTY  .                                           :COUNTY
CTRY  .                                           :COUNTRY
DATE  .                                           :DATE
UWI   .          ID0100133000                     :UNIQUE WELL UWI
LIC   .                                           :LICENSE NUMBER
API   .                                           :API NUMBER
SRVC  .          SLB                              :SERVICE COMPANY
~Parameter Information Block
#MNEM.UNIT       Value                            Description
#---------       ---------                        -------------
LONG  .DEG       106.273981                       :Well Surface Location
LATI  .DEG       -5.423425                        :Well Surface Location
XWELL .M         308784.920000                    :X-coordinate of Well Head
YWELL .M         9400315.870000                   :Y-coordinate of Well Head
~Curve Information Block
#MNEM.UNIT       API Code            Curve    Description
#--------        --------------      -----    -------------------
DEPT  .F                             :0       Index
ILD   .OHMM                          :1       Induction Deep Resistivity    
RHOB  .G/C3                          :2       Bulk Density                  
DRHO  .G/C3                          :3       Bulk Density Correction       
CALI  .IN                            :4       Caliper                       
NPHI  .V/V                           :5       Thermal Neutron Porosity (original Ratio Method) in Selected Lithology
PROX  .OHMM                          :6       Proximity Resistivity (MPT)   
SN    .OHMM                          :7       Short Normal Resistivity (16 inch spacing)
SP    .MV                            :8       Spontaneous Potential         
GR    .GAPI                          :9       Gamma Ray                     
DT    .US/F                          :10      Delta-T (also called Slowness or Interval Transit Time)
~Ascii Data Section
# ...
   3434.00000       4.72500       2.31900       0.03100      13.11000       0.33347       7.41600       6.54900      31.42200      27.66200     108.69700 
   3434.50000       4.87743       2.35400       0.13000      13.11400       0.31827      10.29500       6.88400      27.81700      27.19100     114.70800 
   3435.00000       5.17807       2.22600       0.07500      12.74600       0.30558      10.42300       7.27300      25.36000      27.19600     116.83000 
   3435.50000       5.51825       2.23600       0.06700      12.00700       0.28884      11.51200       7.52200      24.33200      27.17500     116.16700 
   3436.00000       5.86046       2.21200       0.04900      12.94700       0.28247      11.16000       7.66100      23.27000      27.51800     114.44300 
   3436.50000       6.14636       2.19200       0.03300      12.95900       0.27928       9.67500       7.78300      22.66800      29.42100     111.12700 
   3437.00000       6.40677       2.19100       0.01600      12.98100       0.27371       8.76100       7.83800      22.23800      31.34900     110.19900 
   3437.50000       6.46153       2.20700       0.00600      12.94700       0.26414       9.43800       7.93600      21.32800      30.57600     111.92300 
   3438.00000       6.46153       2.24300       0.00100      12.98400       0.25857       9.67500       8.02400      20.86500      29.26800     113.51500 
   3438.50000       6.46153       2.26300       0.00300      12.97400       0.26255      10.55400       8.14700      20.59700      28.36600     116.03400 
   3439.00000       6.57393       2.23700       0.01400      12.97400       0.26892      11.44100       8.27700      20.28500      29.10500     116.03400 
   3439.50000       6.69026       2.20300      -0.00100      12.97300       0.27052      12.87200       8.38500      19.87200      29.87200     114.31000 
   3440.00000       6.63156       2.19300      -0.00100      12.97300       0.27211      13.19600       8.40600      20.50600      30.15300     115.04000 
   3440.50000       6.46153       2.19800       0.00600      12.97900       0.27530      13.69600       8.34100      21.03000      28.23100     115.63700 
   3441.00000       6.24793       2.20200       0.00600      12.99900       0.28048      11.80200       8.20400      20.68500      25.73100     114.37700 
   3441.50000       6.14636       2.20100      -0.00700      13.00000       0.28884      10.04200       8.02500      20.60600      24.04500     115.37100 
   3442.00000       6.04800       2.21300       0.00200      13.04400       0.29442       8.23400       7.88100      20.99500      26.36000     113.44800 
   3442.50000       5.95277       2.23100       0.00500      13.00800       0.28725       7.93300       7.73200      22.21700      27.98900     110.99500 
   3443.00000       6.04800       2.24500       0.00500      13.02500       0.29124       8.65300       7.65600      23.13300      30.24200     110.19900 
   3443.50000       6.14636       2.25700       0.00400      13.05700       0.28805       8.16300       7.76100      24.13200      30.71200     109.27100 
   3444.00000       6.35296       2.26600       0.00100      13.07800       0.28645       7.83500       7.98300      25.63300      27.37200     113.38200 
   3444.50000       6.57393       2.27100      -0.00000      13.10500       0.28725       9.79600       8.16500      25.95300      25.71700     115.37100 
   3445.00000       7.06544       2.26500       0.00500      13.07900       0.28765      13.44600       8.39700      25.97400      23.82500     117.22800 
   3445.50000       7.48514       2.22000       0.00400      13.07900       0.29602      10.81900       8.66100      25.71200      23.47600     120.41100 
   3446.00000       7.63639       2.19100       0.00800      13.12800       0.30159       9.61600       8.80300      26.12200      23.27900     121.60500 
   3446.50000       7.63639       2.17000       0.00400      13.23200       0.30239       9.55600       9.22200      26.16100      23.46300     120.80900 
   3447.00000       7.63639       2.16700       0.01300      13.26600       0.31514       9.20700       9.28800      24.82200      24.07000     123.06400 
   3447.50000       7.79381       2.17500       0.02500      13.26500       0.32470      10.16800       9.37400      24.17900      24.92900     121.47200 
   3448.00000       7.95792       2.14000       0.00800      13.32000       0.32072       9.73600       9.47600      23.62500      25.80300     118.02400 
   3448.50000       8.49437       2.13200      -0.00200      13.38800       0.30717       8.13200       9.78700      23.30200      26.94100     118.55400 
   3449.00000       8.89411       2.14400      -0.00000      13.27800       0.29363       8.87000      10.15800      24.42100      27.51300     117.49300 
   3449.50000       9.56965       2.17400       0.00200      13.26100       0.28486       8.65300      10.52900      25.78900      26.07700     118.59900 
   3450.00000      10.08004       2.19200       0.00700      13.31000       0.28805      10.08000      10.89300      25.38300      24.94600     116.96300 
   3450.50000      11.63075       2.19000       0.01200      13.38100       0.28566      12.40200      12.57200      24.78600      23.16100     116.16700 
   3451.00000      13.03441       2.17300       0.01300      13.42300       0.28088      11.58400      13.38800      23.38900      21.28300     115.63700 
   3451.50000      15.42853       2.12100       0.00100      13.47700       0.27849      11.51200      13.87900      22.82300      18.69700     116.43200 
   3452.00000      17.58149       2.08100       0.02300      13.49600       0.29363      12.55700      13.87600      22.17800      17.91200     116.56500 
   3452.50000      17.58149       2.06400       0.03000      13.46600       0.30120      12.09800      13.83000      22.19500      17.87800     117.36100 
   3453.00000      17.58149       2.06600       0.02300      13.33500       0.31036      12.87200      13.29900      22.50200      18.46300     117.22800 
   3453.50000      14.82360       2.07700       0.01400      13.32200       0.30717      12.24900      12.78000      22.48700      18.37300     115.50400 
   3454.00000      11.63075       2.09200       0.00700      13.29200       0.29602      11.37000      11.73600      22.60800      17.70000     114.17800 
   3454.50000       9.33332       2.08900      -0.01100      13.29200       0.29681      11.51200      10.68000      22.84000      17.88400     114.70800 
   3455.00000       7.13206       2.09800      -0.00800      13.29200       0.30398       9.15100       9.63300      23.59800      19.99100     116.03400 
   3455.50000       5.51825       2.10600       0.00700      13.29200       0.33586       8.13200       8.59100      24.56800      21.50100     119.21800 
   3456.00000       4.52696       2.12400       0.02200      13.30500       0.35259       7.54800       7.34300      27.20200      28.59600     117.09500 
   3456.50000       3.79899       2.14400       0.04400      13.34600       0.34064       6.66700       6.16300      28.52500      37.97800     108.34200 
   3457.00000       3.27272       2.19200       0.06500      13.39100       0.33825       4.59400       5.38800      31.58700      45.68400     102.50700 
   3457.50000       2.87452       2.27800       0.15000      13.46000       0.32948       2.90200       4.82200      36.00700      51.53100      99.45600 
   3458.00000       2.64336       2.38700       0.17000      13.52600       0.31833       2.86700       4.40600      38.60000      56.85600      95.74300 
   3458.50000       2.44660       2.47100       0.14100      13.64400       0.31594       3.41100       4.04600      40.95900      61.11600      99.58900 
   3459.00000       2.33334       2.50500       0.16000      13.90300       0.30478       3.58400       3.90800      42.27800      62.82100      98.92600 
   3459.50000       2.31192       2.44200       0.10900      14.34400       0.28725       3.16600       3.84000      42.38900      64.08400      98.26300 
