~Version Information
VERS  .          2.0                              :CWLS Log Ascii Standard - Version 2.0
WRAP  .          NO                               :One line per depth step
~Well Information Block
#MNEM.UNIT       Data Type                        Information
#---------       ---------                        -------------------------------
STRT  .F         1900.00000                       :START DEPTH
STOP  .F         3700.00000                       :STOP DEPTH
STEP  .F          0.50000                         :INCREMENT
NULL  .          -999.25                          :NULL DATA VALUE
COMP  .                                           :COMPANY
WELL  .          Cinta_H-01                       :WELL
FLD   .          Cinta                            :FIELD
LOC   .                                           :LOCATION
PROV  .                                           :PROVINCE
STAT  .                                           :STATE
CNTY  .                                           :COUNTY
CTRY  .                                           :COUNTRY
DATE  .                                           :DATE
UWI   .          ID0100133000                     :UNIQUE WELL UWI
LIC   .                                           :LICENSE NUMBER
API   .                                           :API NUMBER
SRVC  .          SLB                              :SERVICE COMPANY
~Parameter Information Block
#MNEM.UNIT       Value                            Description
#---------       ---------                        -------------
LONG  .DEG       106.273981                       :Well Surface Location
LATI  .DEG       -5.423425                        :Well Surface Location
XWELL .M         308784.920000                    :X-coordinate of Well Head
YWELL .M         9400315.870000                   :Y-coordinate of Well Head
~Curve Information Block
#MNEM.UNIT       API Code            Curve    Description
#--------        --------------      -----    -------------------
DEPT  .F                             :0       Index
ILD   .OHMM                          :1       Induction Deep Resistivity    
RHOB  .G/C3                          :2       Bulk Density                  
DRHO  .G/C3                          :3       Bulk Density Correction       
CALI  .IN                            :4       Caliper                       
NPHI  .V/V                           :5       Thermal Neutron Porosity (original Ratio Method) in Selected Lithology
PROX  .OHMM                          :6       Proximity Resistivity (MPT)   
SN    .OHMM                          :7       Short Normal Resistivity (16 inch spacing)
SP    .MV                            :8       Spontaneous Potential         
GR    .GAPI                          :9       Gamma Ray                     
DT    .US/F                          :10      Delta-T (also called Slowness or Interval Transit Time)
~Ascii Data Section
# ...
   1978.00000    -999.25000    -999.25000    -999.25000    -999.25000    -999.25000    -999.25000    -999.25000    -999.25000      28.53700      60.06600 
   1978.50000    -999.25000    -999.25000    -999.25000    -999.25000    -999.25000    -999.25000    -999.25000    -999.25000      27.60300      60.06600 
   1979.00000    -999.25000    -999.25000    -999.25000    -999.25000    -999.25000    -999.25000    -999.25000    -999.25000      28.63800      60.06600 
   1979.50000    -999.25000    -999.25000    -999.25000    -999.25000    -999.25000    -999.25000    -999.25000    -999.25000      29.61500      60.72900 
   1980.00000    -999.25000    -999.25000    -999.25000    -999.25000    -999.25000    -999.25000    -999.25000    -999.25000      29.89800      61.39300 
   1980.50000    -999.25000    -999.25000    -999.25000    -999.25000    -999.25000    -999.25000    -999.25000    -999.25000      29.57100      64.53100 
   1981.00000    -999.25000    -999.25000    -999.25000    -999.25000    -999.25000    -999.25000    -999.25000    -999.25000      28.23300      64.04500 
   1981.50000    -999.25000    -999.25000    -999.25000    -999.25000    -999.25000    -999.25000    -999.25000    -999.25000      26.70300      64.31000 
   1982.00000    -999.25000    -999.25000    -999.25000    -999.25000    -999.25000    -999.25000    -999.25000    -999.25000      27.25000      64.64200 
   1982.50000    -999.25000    -999.25000    -999.25000    -999.25000    -999.25000    -999.25000    -999.25000    -999.25000      29.56400      64.84100 
   1983.00000    -999.25000    -999.25000    -999.25000    -999.25000    -999.25000    -999.25000    -999.25000    -999.25000      32.05100      65.10600 
   1983.50000    -999.25000    -999.25000    -999.25000    -999.25000    -999.25000    -999.25000    -999.25000    -999.25000      32.51300      68.42200 
   1984.00000    -999.25000    -999.25000    -999.25000    -999.25000    -999.25000    -999.25000    -999.25000    -999.25000      34.09800      64.31000 
   1984.50000    -999.25000    -999.25000    -999.25000    -999.25000    -999.25000    -999.25000    -999.25000    -999.25000      32.38100      64.17800 
   1985.00000    -999.25000    -999.25000    -999.25000    -999.25000    -999.25000    -999.25000    -999.25000    -999.25000      30.99700      64.04500 
   1985.50000    -999.25000    -999.25000    -999.25000    -999.25000    -999.25000    -999.25000    -999.25000    -999.25000      29.24900      64.70800 
   1986.00000    -999.25000    -999.25000    -999.25000    -999.25000    -999.25000    -999.25000    -999.25000    -999.25000      28.98200      68.28900 
   1986.50000    -999.25000    -999.25000    -999.25000    -999.25000    -999.25000    -999.25000    -999.25000    -999.25000      31.16500      71.34000 
   1987.00000    -999.25000    -999.25000    -999.25000    -999.25000    -999.25000    -999.25000    -999.25000    -999.25000      31.19700      71.93600 
   1987.50000    -999.25000    -999.25000    -999.25000    -999.25000    -999.25000    -999.25000    -999.25000    -999.25000      29.71100      72.00300 
   1988.00000    -999.25000    -999.25000    -999.25000    -999.25000    -999.25000    -999.25000    -999.25000    -999.25000      29.06700      71.60500 
   1988.50000    -999.25000    -999.25000    -999.25000    -999.25000    -999.25000    -999.25000    -999.25000    -999.25000      28.44500      70.54400 
   1989.00000    -999.25000    -999.25000    -999.25000    -999.25000    -999.25000    -999.25000    -999.25000    -999.25000      29.49000      71.87000 
   1989.50000    -999.25000    -999.25000    -999.25000    -999.25000    -999.25000    -999.25000    -999.25000    -999.25000      30.11700      69.16800 
   1990.00000       1.00132       1.94700      -0.29400      12.65500    -999.25000       1.10200       0.04000    -999.25000      30.06400      65.50400 
   1990.50000       1.00132       1.91800      -0.29400      12.65500    -999.25000      12.40200       0.04000    -999.25000      30.17800      65.90200 
   1991.00000       1.00132       1.88100      -0.29400      12.65500    -999.25000       7.63400       0.04000    -999.25000      31.24600      71.73700 
   1991.50000       1.00132       1.87400      -0.29400      12.62900    -999.25000       3.01300       0.04000    -999.25000      31.65000      68.95200 
   1992.00000       1.00132       1.87000      -0.29500      12.62800    -999.25000       2.66100       0.04000    -999.25000      30.44500      81.28600 
   1992.50000       1.00132       1.88100      -0.29600      12.63400    -999.25000       6.66700       0.04000    -999.25000      28.77500      71.34000 
   1993.00000       1.00132       1.90500      -0.29500      12.65500    -999.25000       2.97500       0.04000    -999.25000      28.81900      75.31800 
   1993.50000       1.00132       1.95200      -0.29400      12.62600    -999.25000      40.83200       0.04000    -999.25000      29.31500      74.52300 
   1994.00000       1.00132       2.02000      -0.29500      12.62800    -999.25000       8.85400       0.04000    -999.25000      30.69500      81.02100 
   1994.50000       1.00132       2.06600      -0.29700      12.62800    -999.25000       2.02500       0.04000    -999.25000      32.23600      75.58400 
   1995.00000       1.00132       2.11800      -0.29700      12.60900    -999.25000       3.20500       0.04000    -999.25000      33.68500      91.23300 
   1995.50000       1.00132       2.13400      -0.29800      12.62300    -999.25000       2.10200       0.04000    -999.25000      35.08300      84.60200 
   1996.00000       1.00132       2.13200      -0.29800      12.62900    -999.25000       4.82800       0.04000    -999.25000      37.53100      75.45100 
   1996.50000       1.00132       2.12000      -0.29700      12.62200    -999.25000       3.86800       0.04000    -999.25000      48.43500      93.66500 
   1997.00000       1.00132       2.12500      -0.29400      12.61200    -999.25000       1.46600       0.04000    -999.25000      48.63100     119.74800 
   1997.50000       1.00132       2.13300      -0.29200      12.59900    -999.25000       3.55900       0.03900    -999.25000      41.66600     135.19901 
   1998.00000       1.00132       2.10700      -0.27500      12.63400    -999.25000       7.09400       0.03900    -999.25000      35.73800     153.03700 
   1998.50000       1.00132       2.04200      -0.19000      12.55600    -999.25000       1.06200       0.04600    -999.25000      34.35900     174.56200 
   1999.00000       1.00132       1.95400      -0.10400      12.61100    -999.25000       1.11600       0.19700    -999.25000      34.53700     195.47701 
   1999.50000       1.00132       1.86900       0.12000      12.78600    -999.25000       1.43000       0.61800    -999.25000      34.72800     192.69200 
   2000.00000       0.96552       1.70300       0.09900      13.36500    -999.25000       1.41600       0.88700    -999.25000      35.62500     199.45599 
   2000.50000       0.78342       1.70200       0.07100      16.42500    -999.25000       1.37800       1.03600    -999.25000      36.45500     188.71400 
   2001.00000       1.00935       1.71100       0.09900      17.06700    -999.25000       1.27900       1.17400       4.38800      38.95000     170.80901 
   2001.50000       1.16847       1.73800       0.08600      16.50500    -999.25000       1.29500       1.24800       6.25000      41.66700     178.50101 
   2002.00000       1.71467       1.73700       0.05400      15.42500    -999.25000       1.36100       1.28200       7.58000      42.92700     177.44000 
   2002.50000       1.37810       1.82000       0.05100      16.35300    -999.25000       1.31100       1.31300       7.98800      44.39100     172.86301 
   2003.00000       1.14372       1.89800       0.05100      17.52600    -999.25000       1.29500       1.23400       8.15800      46.02200     167.52901 
   2003.50000       1.00132       1.93100       0.05300      17.50200    -999.25000       1.31100       1.18200       8.66300      48.06500     162.19501 
