~Version Information
VERS  .          2.0                              :CWLS Log Ascii Standard - Version 2.0
WRAP  .          NO                               :One line per depth step
~Well Information Block
#MNEM.UNIT       Data Type                        Information
#---------       ---------                        -------------------------------
STRT  .F         1900.00000                       :START DEPTH
STOP  .F         3700.00000                       :STOP DEPTH
STEP  .F          0.50000                         :INCREMENT
NULL  .          -999.25                          :NULL DATA VALUE
COMP  .                                           :COMPANY
WELL  .          Cinta_H-01                       :WELL
FLD   .          Cinta                            :FIELD
LOC   .                                           :LOCATION
PROV  .                                           :PROVINCE
STAT  .                                           :STATE
CNTY  .                                           :COUNTY
CTRY  .                                           :COUNTRY
DATE  .                                           :DATE
UWI   .          ID0100133000                     :UNIQUE WELL UWI
LIC   .                                           :LICENSE NUMBER
API   .                                           :API NUMBER
SRVC  .          SLB                              :SERVICE COMPANY
~Parameter Information Block
#MNEM.UNIT       Value                            Description
#---------       ---------                        -------------
LONG  .DEG       106.273981                       :Well Surface Location
LATI  .DEG       -5.423425                        :Well Surface Location
XWELL .M         308784.920000                    :X-coordinate of Well Head
YWELL .M         9400315.870000                   :Y-coordinate of Well Head
~Curve Information Block
#MNEM.UNIT       API Code            Curve    Description
#--------        --------------      -----    -------------------
DEPT  .F                             :0       Index
ILD   .OHMM                          :1       Induction Deep Resistivity    
RHOB  .G/C3                          :2       Bulk Density                  
DRHO  .G/C3                          :3       Bulk Density Correction       
CALI  .IN                            :4       Caliper                       
NPHI  .V/V                           :5       Thermal Neutron Porosity (original Ratio Method) in Selected Lithology
PROX  .OHMM                          :6       Proximity Resistivity (MPT)   
SN    .OHMM                          :7       Short Normal Resistivity (16 inch spacing)
SP    .MV                            :8       Spontaneous Potential         
GR    .GAPI                          :9       Gamma Ray                     
DT    .US/F                          :10      Delta-T (also called Slowness or Interval Transit Time)
~Ascii Data Section
# ...
   3096.00000       0.70781       2.10100       0.08300      13.96300       0.22510       0.77900       0.67200      38.36600      51.39900     157.14900 
   3096.50000       0.84521       2.16600       0.12300      13.79200       0.19960       0.75000       0.92100      37.47300      48.91000     150.41800 
   3097.00000       0.96594       2.17300       0.13100      13.43500       0.19721       0.92700       1.11800      37.36200      44.59600     139.90700 
   3097.50000       1.03704       2.18300       0.09000      13.31000       0.17968       1.62000       1.63500      37.63300      40.56900     118.74500 
   3098.00000       1.25790       2.22800       0.06000      12.87000       0.15817       4.53800       1.96400      37.91700      37.37800     100.25200 
   3098.50000       1.53347       2.32800       0.03800      12.73600       0.12151      10.04200       2.27900      37.90600      36.38200      96.50500 
   3099.00000       1.59831       2.41700       0.01100      12.74400       0.10956       6.34400       2.29500      38.18300      38.89700      75.45100 
   3099.50000       1.45106       2.50100       0.03200      12.73200       0.10637       3.81400       1.86000      37.89400      40.64800      78.10300 
   3100.00000       1.20257       2.51300       0.05000      12.73400       0.11275       7.54800       1.52300      38.23100      44.06100      91.37400 
   3100.50000       1.00132       2.50100       0.03500      12.69400       0.11912       3.12700       1.27400      38.71200      47.72700     102.24100 
   3101.00000       0.91636       2.44200       0.03100      12.69700       0.13267       1.08900       1.04800      38.70200      51.55600     121.34000 
   3101.50000       0.73469       2.41400       0.04600      12.68200       0.14622       1.31100       0.94000      38.72800      54.52000     128.23599 
   3102.00000       0.68354       2.37700       0.06300      12.68100       0.16135       1.10200       0.84600      37.59300      62.19300     127.30800 
   3102.50000       0.64893       2.33400       0.05500      12.68200       0.16454       0.98600       0.80600      37.10800      63.67500     134.20399 
   3103.00000       0.62325       2.33700       0.09100      12.68300       0.16773       0.90400       0.83900      37.71700      68.77300     131.02100 
   3103.50000       0.57081       2.30900       0.07100      12.70000       0.17331       0.98600       0.83900      37.69000      68.85800     115.63700 
   3104.00000       0.54428       2.28700       0.04600      12.73300       0.16614       1.37800       0.79900      38.24500      66.44500     114.04500 
   3104.50000       0.53277       2.30200       0.07200      12.79600       0.15498       7.00700       0.80600      38.74300      62.60000     117.93300 
   3105.00000       0.52318       2.30100       0.01200      12.81200       0.14462       1.24800       0.79600      37.90400      64.55000     126.51200 
   3105.50000       0.48348       2.33600       0.01800      12.83800       0.14064       0.93800       0.71800      37.07900      67.65200     144.94701 
   3106.00000       0.44637       2.33800       0.03800      12.92400       0.18207       0.90400       0.64900      37.10900      68.50100     150.51700 
   3106.50000       0.42211       2.26600       0.07600      12.94900       0.17888       1.03600       0.60000      36.75600      67.28000     147.86501 
   3107.00000       0.41561       2.21700       0.04900      12.94700       0.19084       0.99800       0.58800      36.51100      66.99100     146.80400 
   3107.50000       0.42164       2.22200       0.03300      12.95300       0.18127       0.88200       0.59500      36.61200      66.99900     149.72099 
   3108.00000       0.44030       2.23000      -0.00200      13.02000       0.17809       0.81800       0.60100      36.57200      68.05800     161.50999 
   3108.50000       0.46126       2.25700       0.07100      13.07100       0.18765       0.83900       0.62300      36.85400      67.18000     162.71899 
   3109.00000       0.49606       2.22400       0.06400      13.15300       0.19482       0.89300       0.66400      37.19600      64.55800     163.11700 
   3109.50000       0.52830       2.18800       0.06700      13.22500       0.19721       0.86000       0.68600      37.38500      63.48600     160.66299 
   3110.00000       0.57666       2.18800       0.07000      13.23700       0.19323       0.84900       0.75400      37.09800      65.28800     147.59900 
   3110.50000       0.59857       2.19700       0.06600      13.31500       0.19641       0.97400       0.83400      37.24900      70.71200     162.71899 
   3111.00000       0.61866       2.20400       0.06400      13.42900       0.19721       1.04900       0.83100      37.38300      72.63900     161.92300 
   3111.50000       0.62428       2.21400       0.06300      13.42500       0.20359       0.98600       0.82500      37.51500      73.86900     165.50400 
   3112.00000       0.58378       2.20000       0.07000      13.42400       0.21135       0.99800       0.75200      37.63200      71.53300     165.03999 
   3112.50000       0.51745       2.16200       0.07800      13.42400       0.21793       0.98600       0.68000      37.63100      67.39000     164.17799 
   3113.00000       0.48586       2.13200       0.07000      13.42500       0.21315       1.15900       0.62800      37.60900      65.10300     163.64700 
   3113.50000       0.45790       2.11400       0.06100      13.42400       0.20837       1.34400       0.56400      37.70900      63.63000     169.08501 
   3114.00000       0.43902       2.08900       0.03500      13.44800       0.20677       0.90900       0.55600      37.56900      66.56500     163.24899 
   3114.50000       0.41199       2.08300       0.02700      13.42700       0.20598       0.82800       0.51700      37.46000      69.96000     166.96300 
   3115.00000       0.40667       2.12400       0.05000      13.42500       0.20837       0.82800       0.50000      37.34600      71.02500     166.16701 
   3115.50000       0.39852       2.12700       0.05700      13.42400       0.21076       0.79800       0.53400      37.14000      70.94100     166.16701 
   3116.00000       0.38889       2.13400       0.05500      13.44800       0.21554       0.80800       0.54800      36.77600      70.60900     166.83000 
   3116.50000       0.37631       2.13900       0.06400      13.42600       0.21873       0.80800       0.53600      36.29700      70.03500     171.93600 
   3117.00000       0.37914       2.11600       0.06200      13.41800       0.22351       0.81800       0.54200      36.92600      68.93000     175.98100 
   3117.50000       0.38869       2.10900       0.05600      13.37900       0.22112       0.80800       0.54200      37.10400      67.52200     176.11400 
   3118.00000       0.38989       2.10300       0.05700      13.31300       0.21474       0.78900       0.54200      37.23300      67.25400     176.37900 
   3118.50000       0.39070       2.10000       0.06000      13.24000       0.21394       0.80800       0.54200      37.36600      67.23100     176.51199 
   3119.00000       0.39293       2.10800       0.06300      13.23900       0.21713       0.82700       0.54200      37.08100      66.76300     176.51199 
   3119.50000       0.39560       2.11500       0.06500      13.23900       0.20996       0.84900       0.54000      36.79100      66.24600     176.64500 
   3120.00000       0.40645       2.12700       0.07400      13.23300       0.20637       0.89300       0.50800      36.61900      67.33700     160.99500 
   3120.50000       0.41791       2.13000       0.07800      13.22100       0.21235       0.88200       0.47400      36.56500      72.03500     163.51500 
   3121.00000       0.44105       2.14700       0.09200      13.23100       0.21952       0.86000       0.44300      36.55500      72.45100     168.02400 
   3121.50000       0.46690       2.15100       0.09800      13.22200       0.22430       0.93800       0.45100      36.37000      70.71400     165.76900 
