~Version Information
VERS  .          2.0                              :CWLS Log Ascii Standard - Version 2.0
WRAP  .          NO                               :One line per depth step
~Well Information Block
#MNEM.UNIT       Data Type                        Information
#---------       ---------                        -------------------------------
STRT  .F         1900.00000                       :START DEPTH
STOP  .F         3700.00000                       :STOP DEPTH
STEP  .F          0.50000                         :INCREMENT
NULL  .          -999.25                          :NULL DATA VALUE
COMP  .                                           :COMPANY
WELL  .          Cinta_H-01                       :WELL
FLD   .          Cinta                            :FIELD
LOC   .                                           :LOCATION
PROV  .                                           :PROVINCE
STAT  .                                           :STATE
CNTY  .                                           :COUNTY
CTRY  .                                           :COUNTRY
DATE  .                                           :DATE
UWI   .          ID0100133000                     :UNIQUE WELL UWI
LIC   .                                           :LICENSE NUMBER
API   .                                           :API NUMBER
SRVC  .          SLB                              :SERVICE COMPANY
~Parameter Information Block
#MNEM.UNIT       Value                            Description
#---------       ---------                        -------------
LONG  .DEG       106.273981                       :Well Surface Location
LATI  .DEG       -5.423425                        :Well Surface Location
XWELL .M         308784.920000                    :X-coordinate of Well Head
YWELL .M         9400315.870000                   :Y-coordinate of Well Head
~Curve Information Block
#MNEM.UNIT       API Code            Curve    Description
#--------        --------------      -----    -------------------
DEPT  .F                             :0       Index
ILD   .OHMM                          :1       Induction Deep Resistivity    
RHOB  .G/C3                          :2       Bulk Density                  
DRHO  .G/C3                          :3       Bulk Density Correction       
CALI  .IN                            :4       Caliper                       
NPHI  .V/V                           :5       Thermal Neutron Porosity (original Ratio Method) in Selected Lithology
PROX  .OHMM                          :6       Proximity Resistivity (MPT)   
SN    .OHMM                          :7       Short Normal Resistivity (16 inch spacing)
SP    .MV                            :8       Spontaneous Potential         
GR    .GAPI                          :9       Gamma Ray                     
DT    .US/F                          :10      Delta-T (also called Slowness or Interval Transit Time)
~Ascii Data Section
# ...
   3330.00000       1.01476       2.09800      -0.00200      14.51200       0.26494       3.45300       1.93800       6.77300      17.40900     119.88100 
   3330.50000       1.01750       2.09700       0.00100      14.51100       0.27530       4.37200       1.92100       6.60100      17.01700     121.07400 
   3331.00000       1.02024       2.08700      -0.00700      14.58300       0.28008       5.13700       1.96100       5.88400      16.67400     120.01300 
   3331.50000       1.01750       2.07100      -0.01900      14.88800       0.27928       4.31800       1.91900       6.26100      16.09600     121.47200 
   3332.00000       1.01341       2.06900      -0.02500      14.94300       0.28396       4.26500       1.91500       6.64400      16.19200     123.46200 
   3332.50000       1.00666       2.07700      -0.02200      14.78400       0.29044       4.37200       1.91500       6.83900      16.70000     122.40100 
   3333.00000       1.00132       2.07300      -0.02000      14.81900       0.29920       4.21200       1.90800       7.02600      17.16100     121.67100 
   3333.50000       1.00132       2.07800      -0.00100      14.89300       0.30319       3.72000       1.91500       7.21400      17.62700     120.67600 
   3334.00000       1.00398       2.08300       0.00600      14.96300       0.29920       4.21200       1.93900       7.31400      17.24900     120.01300 
   3334.50000       1.00935       2.07300       0.00100      15.01500       0.29283       3.49600       1.99400       6.64600      16.72500     122.13500 
   3335.00000       1.02024       2.05500       0.01900      15.17300       0.29522       3.12700       1.99400       5.92600      16.50000     123.46200 
   3335.50000       1.04276       2.09600       0.04500      15.25300       0.30022       3.86100       1.99400       6.83500      17.63500     125.58400 
   3336.00000       1.08077       2.09600       0.05800      15.23300       0.30159       4.74100       1.99400       7.58400      19.56100     122.00300 
   3336.50000       1.14372       2.05200       0.00300      15.35000       0.30052       3.62900       1.99200       8.39600      21.71400     124.12500 
   3337.00000       1.24342       2.04200      -0.00200      15.47800       0.31036       4.54300       2.02200      10.54700      22.84400     131.81700 
   3337.50000       1.37705       2.02100       0.02400      15.46800       0.34781       5.39900       2.01400      13.22300      23.70400     145.74300 
   3338.00000       1.54601       1.98100       0.01700      15.56400       0.36534       3.72000       2.04000      17.22500      24.10300     145.21201 
   3338.50000       1.77049       1.91700       0.00700      15.79200       0.38845       3.32700       2.30100      26.65900      24.97300     153.35500 
   3339.00000       1.98425       1.85600      -0.00200      15.87200       0.41793       4.31800       2.49300      31.41600      26.63700     163.64700 
   3339.50000       2.19131       1.78700      -0.00200      15.94300       0.45857       4.37200       3.01600      32.86800      27.57000     162.98399 
   3340.00000       2.29787       1.70800       0.00200      16.12300       0.50000       4.31800       3.16300      33.72900      29.68400     159.66800 
   3340.50000       2.38486       1.58400       0.02500      16.53200       0.48406      14.04100       3.17900      34.74100      34.13400     149.58900 
   3341.00000       2.38486       1.52100       0.02300      16.10200       0.46813      17.12600       3.05900      35.44900      37.68500     139.90700 
   3341.50000       2.29787       1.69900       0.02800      17.13300       0.44343       3.86100       2.95500      35.95600      40.17900     136.85699 
   3342.00000       2.16992       1.68600       0.01700      16.58000       0.42988       2.83100       2.63100      36.44200      42.81400     137.25500 
   3342.50000       2.00531       1.89500       0.00900      16.55600       0.40120       2.90200       2.40100      37.13600      46.64100     135.26500 
   3343.00000       1.87593       2.12200       0.01700      16.55200       0.36932       3.01300       2.22800      37.11400      47.00800     136.72400 
   3343.50000       1.78723       2.23000       0.03600      16.61900       0.36375       2.59600       2.10500      37.28300      46.84700     138.44800 
   3344.00000       1.74596       2.20400       0.04200      16.66500       0.37490       2.53200       2.09500      37.63200      46.35500     136.78999 
   3344.50000       1.72210       2.18500       0.04000      16.79500       0.37968       2.56400       2.21000      37.61900      46.07600     131.41901 
   3345.00000       1.75000       2.21400       0.03900      16.86300       0.36773       2.56400       2.25100      37.61700      46.28000     127.44000 
   3345.50000       1.77882       2.31500       0.05100      16.95700       0.36295       2.59600       2.26000      37.57400      46.87400     125.98100 
   3346.00000       1.80430       2.37300       0.05700      16.96100       0.34861       2.66100       2.23800      37.40200      47.81300     125.38500 
   3346.50000       1.79573       2.37900       0.04600      16.97900       0.35020       2.79200       2.23000      37.03900      46.92600     122.93100 
   3347.00000       1.77049       2.35400       0.02900      17.01300       0.35498       2.90200       2.23300      36.83700      51.44300     122.20200 
   3347.50000       1.72210       2.33400       0.02600      17.07400       0.35179       3.05000       2.23400      37.11200      55.05600     121.87000 
   3348.00000       1.66888       2.34000       0.03000      17.08500       0.34731       3.05000       2.17500      36.89700      61.33700     130.88901 
   3348.50000       1.59831       2.34600       0.02200      17.14200       0.34622       2.86700       2.08000      35.63400      71.89300     130.09300 
   3349.00000       1.54601       2.33500       0.01600      17.18500       0.35179       2.79600       1.99800      34.42500      80.15000     136.39301 
   3349.50000       1.48527       2.34100       0.01100      17.19200       0.35259       2.97500       1.92200      33.86100      92.37500     140.83600 
   3350.00000       1.44551       2.34300       0.00500      17.21100       0.34223       2.66100       1.84700      33.28500     100.29000     138.71400 
   3350.50000       1.38208       2.33800       0.00500      17.24200       0.35020       2.56400       1.80300      33.32100     100.03600     147.20200 
   3351.00000       1.32865       2.31300       0.01700      17.24100       0.36773       2.56400       1.78400      33.37800     101.92400     154.76100 
   3351.50000       1.28353       2.26600       0.01100      17.26900       0.36773       2.47000       1.78200      33.32300     100.75700     153.70000 
   3352.00000       1.24138       2.28300       0.01600      17.31000       0.37582       2.47000       1.76800      33.12600     100.46000     144.94701 
   3352.50000       1.21348       2.30200       0.02600      17.35400       0.38845       2.53200       1.75700      33.09700     100.16300     139.24400 
   3353.00000       1.18868       2.32300       0.03200      17.37300       0.38526       2.51600       1.71600      33.36400      94.06900     142.89101 
   3353.50000       1.17209       2.33600       0.03900      17.40300       0.38606       2.35000       1.67100      33.44600      89.99800     143.48801 
   3354.00000       1.15773       2.34900       0.01600      17.44100       0.38207       2.23600       1.61000      33.36100      88.64700     142.95799 
   3354.50000       1.14719       2.35600       0.01200      17.44800       0.38127       2.23600       1.59700      33.85500      86.56600     146.14101 
   3355.00000       1.15068       2.35000       0.00900      17.45700       0.38526       2.29300       1.63700      33.42100      83.44100     148.26300 
   3355.50000       1.19055       2.33900       0.00800      17.48300       0.39163       3.01300       1.67800      33.38800      78.01600     140.83600 
