~Version Information
VERS  .          2.0                              :CWLS Log Ascii Standard - Version 2.0
WRAP  .          NO                               :One line per depth step
~Well Information Block
#MNEM.UNIT       Data Type                        Information
#---------       ---------                        -------------------------------
STRT  .F         1900.00000                       :START DEPTH
STOP  .F         3700.00000                       :STOP DEPTH
STEP  .F          0.50000                         :INCREMENT
NULL  .          -999.25                          :NULL DATA VALUE
COMP  .                                           :COMPANY
WELL  .          Cinta_H-01                       :WELL
FLD   .          Cinta                            :FIELD
LOC   .                                           :LOCATION
PROV  .                                           :PROVINCE
STAT  .                                           :STATE
CNTY  .                                           :COUNTY
CTRY  .                                           :COUNTRY
DATE  .                                           :DATE
UWI   .          ID0100133000                     :UNIQUE WELL UWI
LIC   .                                           :LICENSE NUMBER
API   .                                           :API NUMBER
SRVC  .          SLB                              :SERVICE COMPANY
~Parameter Information Block
#MNEM.UNIT       Value                            Description
#---------       ---------                        -------------
LONG  .DEG       106.273981                       :Well Surface Location
LATI  .DEG       -5.423425                        :Well Surface Location
XWELL .M         308784.920000                    :X-coordinate of Well Head
YWELL .M         9400315.870000                   :Y-coordinate of Well Head
~Curve Information Block
#MNEM.UNIT       API Code            Curve    Description
#--------        --------------      -----    -------------------
DEPT  .F                             :0       Index
ILD   .OHMM                          :1       Induction Deep Resistivity    
RHOB  .G/C3                          :2       Bulk Density                  
DRHO  .G/C3                          :3       Bulk Density Correction       
CALI  .IN                            :4       Caliper                       
NPHI  .V/V                           :5       Thermal Neutron Porosity (original Ratio Method) in Selected Lithology
PROX  .OHMM                          :6       Proximity Resistivity (MPT)   
SN    .OHMM                          :7       Short Normal Resistivity (16 inch spacing)
SP    .MV                            :8       Spontaneous Potential         
GR    .GAPI                          :9       Gamma Ray                     
DT    .US/F                          :10      Delta-T (also called Slowness or Interval Transit Time)
~Ascii Data Section
# ...
   3564.00000      12.81361       2.51900       0.13100      17.48200       0.19163      57.45500      13.28700      30.74400      49.25500      66.30000 
   3564.50000      12.39342       2.49400       0.12500      17.48300       0.19482      64.63400      12.78000      31.13000      49.32700      68.02400 
   3565.00000      12.39342       2.46100       0.10300      17.48400       0.18924      51.42100      12.01500      31.97200      49.70800      69.61500 
   3565.50000      12.39342       2.43800       0.07700      17.50300       0.18048      33.89500      11.69800      32.87000      49.65500      72.26800 
   3566.00000      12.39342       2.45800       0.05600      17.51600       0.17490      23.06900      11.22600      33.65600      49.50800      75.05300 
   3566.50000      12.00005       2.49000       0.04300      17.50600       0.16534      25.79500      11.22900      35.02300      49.18900      75.71600 
   3567.00000      12.00005       2.49000       0.01000      17.50800       0.15498      31.85600      11.25900      35.44200      47.23200      74.72100 
   3567.50000      12.39342       2.51400       0.01800      17.46500       0.14542      31.07500      12.09400      35.43800      45.43700      72.53300 
   3568.00000      12.81361       2.52400       0.04300      17.30800       0.13984      25.66000      12.61400      35.17200      45.34300      69.88100 
   3568.50000      12.81361       2.52400       0.03600      17.20800       0.13347      17.12600      13.08700      35.26900      46.64300      68.12300 
   3569.00000      13.26313       2.53500       0.05700      17.13100       0.12789       8.54600      13.38200      35.25600      49.61000      66.69800 
   3569.50000      13.26313       2.53500       0.05500      17.02600       0.11753       9.67500      13.54700      35.44800      51.88000      66.16700 
   3570.00000      13.74552       2.53800       0.05400      16.91400       0.11116      17.33900      13.95100      35.49200      50.74100      65.90200 
   3570.50000      13.88407       2.55400       0.05500      16.82800       0.10159      31.85600      14.13100      35.78200      49.09400      65.90200 
   3571.00000      14.01129       2.57300       0.06800      16.74200       0.09442      35.18100      14.19100      36.24600      48.47300      66.36600 
   3571.50000      14.14107       2.57400       0.05900      16.67000       0.09203      29.20500      14.37700      36.77000      50.06700      66.43200 
   3572.00000      14.26411       2.56700       0.03900      16.57500       0.09761      29.56900      14.30500      37.23400      51.19200      66.63100 
   3572.50000      14.26411       2.58300       0.03600      16.51200       0.10239      21.95100      14.48800      37.64200      53.37100      66.83000 
   3573.00000      14.26411       2.57800       0.01900      16.37200       0.10717      24.56300      14.79000      37.94500      53.47000      67.25700 
   3573.50000      14.82360       2.57900       0.01200      16.21400       0.10558      34.31900      15.20400      38.18400      53.71400      68.53500 
   3574.00000      14.82360       2.57200       0.01200      16.01700       0.10080      27.79000      15.19900      38.61300      54.93600      70.67600 
   3574.50000      14.82360       2.56700       0.00600      15.59400       0.09602      29.93900      15.25000      38.99300      56.68100      75.66300 
   3575.00000      14.82360       2.57300       0.01300      15.40300       0.09203      31.07500      15.48600      39.24300      59.61400      70.08000 
   3575.50000      14.26411       2.58700       0.01400      15.30700       0.08884      31.07500      15.20800      39.55500      60.52700      70.27900 
   3576.00000      14.26411       2.58800       0.01400      15.19100       0.08486      24.85200      15.21800      39.76100      59.83900      70.08000 
   3576.50000      13.74552       2.59500       0.01600      15.14200       0.08566      22.50300      14.92000      39.76500      59.34300      70.41100 
   3577.00000      14.26411       2.60100       0.03300      15.04100       0.09203      24.24300      14.92900      39.76300      58.53600      69.81400 
   3577.50000      13.74552       2.59200       0.04500      14.98800       0.10159      14.75600      14.93000      39.81100      60.06800      69.61500 
   3578.00000      14.26411       2.57700       0.04900      14.98900       0.10637      22.22600      14.93500      40.36000      61.24500      68.62100 
   3578.50000      13.74552       2.58800       0.04900      14.99000       0.11036      27.44700      14.95700      40.54800      62.95200      66.43200 
   3579.00000      13.74552       2.59900       0.07900      14.99200       0.11434      14.30700      15.35300      40.57000      64.71300      65.04000 
   3579.50000      13.74552       2.60700       0.08400      14.92600       0.11753      23.06900      15.66500      40.28600      67.54100      65.10600 
   3580.00000      13.78208       2.63000       0.08300      14.89100       0.11285      22.22600      15.73700      39.99000      70.40000      65.23900 
   3580.50000      14.11632       2.63100       0.05600      14.85200       0.10876      37.43400      15.93100      39.81400      69.58000      66.30000 
   3581.00000      14.46717       2.60200       0.04400      14.76500       0.10717      40.32900      15.99000      39.32300      67.89000      66.69800 
   3581.50000      14.82360       2.60000       0.03500      14.69400       0.10797      30.69100      16.16600      39.30100      68.03500      64.97300 
   3582.00000      15.42853       2.60500       0.03800      14.65900       0.10637      18.91300      16.52600      39.04600      67.16300      63.78000 
   3582.50000      16.08519       2.61300       0.04700      14.56600       0.10558      43.44700      16.31800      38.38100      65.56100      64.04500 
   3583.00000      16.08519       2.63500       0.05400      14.46700       0.10159      22.78400      15.68900      37.83400      63.47800      64.50900 
   3583.50000      15.42853       2.65600       0.06100      14.41800       0.09681      15.12600      15.76300      37.47600      63.20400      65.23900 
   3584.00000      15.42853       2.64000       0.04400      14.30200       0.09149      38.37500      14.99600      36.69700      64.34100      65.50400 
   3584.50000      14.82360       2.64200       0.04600      14.21300       0.08725      28.13700      14.62000      35.79300      66.26000      65.32500 
   3585.00000      14.26411       2.61100       0.03100      14.14500       0.09442      78.85900      13.95400      34.39200      67.58600      64.70800 
   3585.50000      13.74552       2.59200       0.04700      14.08700       0.11275      91.49700      13.31500      33.14800      67.09800      64.44300 
   3586.00000      14.26411       2.58800       0.07300      14.02800       0.12948      42.38100      12.52600      32.08600      66.14500      63.91200 
   3586.50000      13.74552       2.57900       0.12100      13.97900       0.17251      23.06900      12.30900      31.18300      65.09700      66.03400 
   3587.00000      12.81361       2.57600       0.12900      13.98200       0.19163      20.37600      11.99900      30.57800      66.52700      71.73700 
   3587.50000      12.39342       2.56800       0.12200      13.98400       0.19960      23.35700      11.97000      29.91800      67.81500      77.17500 
   3588.00000      12.00005       2.55900       0.10200      14.02000       0.19323      13.19600      11.93100      29.10400      68.68900      82.61300 
   3588.50000      11.28363       2.56100       0.08100      13.98000       0.17570      16.29600      11.89200      27.50700      70.58300      81.81700 
   3589.00000      10.64793       2.57300       0.06500      13.94300       0.15578      15.99600      11.85400      26.73100      71.56400      78.89900 
   3589.50000       9.81817       2.59000       0.05600      13.79300       0.13665      17.33900      11.81700      26.12500      69.82900      73.72700 
