~Version Information
VERS  .          2.0                              :CWLS Log Ascii Standard - Version 2.0
WRAP  .          NO                               :One line per depth step
~Well Information Block
#MNEM.UNIT       Data Type                        Information
#---------       ---------                        -------------------------------
STRT  .F         1900.00000                       :START DEPTH
STOP  .F         3700.00000                       :STOP DEPTH
STEP  .F          0.50000                         :INCREMENT
NULL  .          -999.25                          :NULL DATA VALUE
COMP  .                                           :COMPANY
WELL  .          Cinta_H-01                       :WELL
FLD   .          Cinta                            :FIELD
LOC   .                                           :LOCATION
PROV  .                                           :PROVINCE
STAT  .                                           :STATE
CNTY  .                                           :COUNTY
CTRY  .                                           :COUNTRY
DATE  .                                           :DATE
UWI   .          ID0100133000                     :UNIQUE WELL UWI
LIC   .                                           :LICENSE NUMBER
API   .                                           :API NUMBER
SRVC  .          SLB                              :SERVICE COMPANY
~Parameter Information Block
#MNEM.UNIT       Value                            Description
#---------       ---------                        -------------
LONG  .DEG       106.273981                       :Well Surface Location
LATI  .DEG       -5.423425                        :Well Surface Location
XWELL .M         308784.920000                    :X-coordinate of Well Head
YWELL .M         9400315.870000                   :Y-coordinate of Well Head
~Curve Information Block
#MNEM.UNIT       API Code            Curve    Description
#--------        --------------      -----    -------------------
DEPT  .F                             :0       Index
ILD   .OHMM                          :1       Induction Deep Resistivity    
RHOB  .G/C3                          :2       Bulk Density                  
DRHO  .G/C3                          :3       Bulk Density Correction       
CALI  .IN                            :4       Caliper                       
NPHI  .V/V                           :5       Thermal Neutron Porosity (original Ratio Method) in Selected Lithology
PROX  .OHMM                          :6       Proximity Resistivity (MPT)   
SN    .OHMM                          :7       Short Normal Resistivity (16 inch spacing)
SP    .MV                            :8       Spontaneous Potential         
GR    .GAPI                          :9       Gamma Ray                     
DT    .US/F                          :10      Delta-T (also called Slowness or Interval Transit Time)
~Ascii Data Section
# ...
   3668.00000      68.72852       2.52600       0.07500      12.32500       0.10319      47.75600      50.33100      27.52300      32.65100    -999.25000 
   3668.50000      68.72852       2.55600       0.09400      12.51900       0.09442      85.99100      49.36800      27.34500      27.19700    -999.25000 
   3669.00000      68.72852       2.54600       0.06600      12.58400       0.09442     106.19300      49.24100      26.92600      26.60400    -999.25000 
   3669.50000      58.15306       2.53500       0.03200      12.60200       0.09761      45.09500      49.00700      26.67800      26.36300    -999.25000 
   3670.00000      50.40069       2.56700       0.02000      12.62300       0.09442      34.74700      49.04900      26.49900      25.85900    -999.25000 
   3670.50000      50.40069       2.58300       0.04800      12.66200       0.09124      66.25900      49.46700      26.79500      25.86000    -999.25000 
   3671.00000      58.15306       2.59000       0.05600      12.60400       0.09522     126.34800      49.87000      26.64200      25.86100    -999.25000 
   3671.50000      58.15306       2.62600       0.08300      12.52900       0.10159     163.97501      50.63400      26.13700      25.86200    -999.25000 
   3672.00000      50.40069       2.65500       0.09700      12.51700       0.10080     212.80600      50.55000      25.11800      25.86200    -999.25000 
   3672.50000      50.40069       2.63400       0.08600      12.58300       0.09522     202.49800      51.86500      24.40200      25.86200    -999.25000 
   3673.00000      50.40069       2.59800       0.08000      12.47800       0.08486     207.58800      52.72800      23.24700      25.86200    -999.25000 
   3673.50000      58.15306       2.56800       0.05500      12.49500       0.07371     143.04700      54.59000      22.72200      25.86200    -999.25000 
   3674.00000      58.15306       2.52700       0.03500      12.52200       0.06335     185.64600      55.91600      22.48100      25.86200    -999.25000 
   3674.50000      58.15306       2.52700       0.04200      12.62200       0.06733      39.34000      57.76500      22.19400      25.86200    -999.25000 
   3675.00000      58.15306       2.48100       0.05500      12.71500       0.07769     118.75400      59.37000      22.20000      25.86200    -999.25000 
   3675.50000      58.15306       2.43000       0.04900      12.70300       0.08247     127.92600      60.63400      22.19500      25.86200    -999.25000 
   3676.00000      58.15306       2.38200       0.02700      12.59900       0.08406     135.27800      63.27600      22.06500      25.86200    -999.25000 
   3676.50000      58.15306       2.32100       0.01500      12.55400       0.08725     181.09399      65.65400      22.27600      25.86200    -999.25000 
   3677.00000      58.15306       2.24700       0.02500      12.38500       0.09203     110.95500      67.76800      22.18600      25.86200    -999.25000 
   3677.50000      58.15306       2.15400       0.03200      11.99100       0.10558      23.64900      69.03100      22.23800      25.86200    -999.25000 
   3678.00000      58.15306       2.04900       0.01200      11.53800       0.13028       2.43900      71.62400      21.64600      25.86200    -999.25000 
   3678.50000      50.40069       1.86700       0.00800      11.23100       0.20518       2.43900      71.31700      21.67200      25.86200    -999.25000 
   3679.00000      50.40069       1.64400       0.01100      10.52900       0.29602       2.43900      74.15900      21.60900      25.86200    -999.25000 
   3679.50000      50.40069       1.64900       0.00400       8.75400       0.33586       2.43900      74.12200      21.36200      25.86200    -999.25000 
   3680.00000      50.40069       1.65400      -0.00200       8.49100       0.34837       2.43900      73.73200      20.65000      25.86200    -999.25000 
   3680.50000      50.40069       1.66400      -0.00200       8.33800       0.34382       2.43900      73.57500      21.21000      25.86200    -999.25000 
   3681.00000      58.15306       1.66500      -0.00500       8.28700       0.34622       2.43900      73.85800      21.14700      25.86200    -999.25000 
   3681.50000      58.15306       1.66100      -0.00900       8.25000       0.34542       2.43900      74.41100      21.22400      25.86200    -999.25000 
   3682.00000      58.15306       1.66000      -0.00900       8.25100       0.33825       2.43900      74.11400      21.13200      25.86200    -999.25000 
   3682.50000      58.15306       1.66500      -0.00300       8.25200       0.33745       2.43900      73.82600      21.12700      25.86200    -999.25000 
   3683.00000      58.15306       1.67000       0.00100       8.25200       0.33028       2.43900      73.82000      20.83400      25.86200    -999.25000 
   3683.50000      58.15306       1.67200       0.00100       8.25300       0.32948       2.43900      74.64700      21.21200      25.86200    -999.25000 
   3684.00000      58.15306       1.66800       0.00000       8.26500       0.33108       2.43900      75.16500      20.83900      25.86200    -999.25000 
   3684.50000      58.15306       1.66600      -0.00300       8.27800       0.33108       2.43900      75.16100      20.64800      25.86200    -999.25000 
   3685.00000      58.15306       1.67000       0.00400       8.27800       0.32709       2.43900      75.16200      20.63900      25.86200    -999.25000 
   3685.50000      68.72852       1.67500       0.00600       8.27900       0.33347       2.43900      75.16400      20.63700      25.86200    -999.25000 
   3686.00000      68.72852       1.67700       0.00900       8.27900       0.35020       2.43900      75.17400      20.75600      25.86200    -999.25000 
   3686.50000      68.72852       1.67800       0.00600       8.27900       0.36295       2.43900      74.82600      21.10400      25.86200    -999.25000 
   3687.00000      68.72852       1.67800       0.00500       8.27900       0.36614       2.43900      74.66700      21.19900      25.86200    -999.25000 
   3687.50000      58.15306       1.67600       0.00400       8.27900       0.37092       2.43900      74.36600      20.89400      25.86200    -999.25000 
   3688.00000      58.15306       1.67300       0.00400       8.27900       0.37092       2.43900      74.37300      20.84500      25.86200    -999.25000 
   3688.50000      58.15306       1.67800       0.00500       8.27900       0.36056       2.43900      74.37600      21.15100      25.86200    -999.25000 
   3689.00000      50.40069       1.67900       0.00500       8.27900       0.35657       2.43900      74.48800      21.12900      25.86200    -999.25000 
   3689.50000      50.40069       1.68100       0.00500       8.27900       0.35896       2.43900      75.24700      21.41100      25.86200    -999.25000 
   3690.00000      58.15306       1.68100       0.00700       8.27900       0.35657       2.43900      75.82900      21.18100      25.86200    -999.25000 
   3690.50000      68.72852       1.68100       0.00800       8.27900       0.34861       2.43900      75.95400      21.41700      25.86200    -999.25000 
   3691.00000      83.99832       1.68200       0.00600       8.27900       0.34781       2.43900      75.96100      21.47000      25.86200    -999.25000 
   3691.50000      83.99832       1.67800       0.00800       8.27900       0.34542       2.43900      75.95900      21.37000      25.86200    -999.25000 
   3692.00000      83.99832       1.67300       0.00900       8.27800       0.34542       2.43900      75.95700      21.45500      25.86200    -999.25000 
   3692.50000      68.72852       1.66900       0.00200       8.27500       0.33705       2.43900      75.95400      21.66800      25.86200    -999.25000 
   3693.00000      68.72852       1.66900      -0.00100       8.26600       0.34064       2.43900      75.94500      21.38200      25.86200    -999.25000 
   3693.50000      68.72852       1.67700      -0.00000       8.25100       0.35259       2.43900      75.75100      21.45400      25.86200    -999.25000 
