~Version Information
VERS  .          2.0                              :CWLS Log Ascii Standard - Version 2.0
WRAP  .          NO                               :One line per depth step
~Well Information Block
#MNEM.UNIT       Data Type                        Information
#---------       ---------                        -------------------------------
STRT  .F         1900.00000                       :START DEPTH
STOP  .F         3700.00000                       :STOP DEPTH
STEP  .F          0.50000                         :INCREMENT
NULL  .          -999.25                          :NULL DATA VALUE
COMP  .                                           :COMPANY
WELL  .          Cinta_H-01                       :WELL
FLD   .          Cinta                            :FIELD
LOC   .                                           :LOCATION
PROV  .                                           :PROVINCE
STAT  .                                           :STATE
CNTY  .                                           :COUNTY
CTRY  .                                           :COUNTRY
DATE  .                                           :DATE
UWI   .          ID0100133000                     :UNIQUE WELL UWI
LIC   .                                           :LICENSE NUMBER
API   .                                           :API NUMBER
SRVC  .          SLB                              :SERVICE COMPANY
~Parameter Information Block
#MNEM.UNIT       Value                            Description
#---------       ---------                        -------------
LONG  .DEG       106.273981                       :Well Surface Location
LATI  .DEG       -5.423425                        :Well Surface Location
XWELL .M         308784.920000                    :X-coordinate of Well Head
YWELL .M         9400315.870000                   :Y-coordinate of Well Head
~Curve Information Block
#MNEM.UNIT       API Code            Curve    Description
#--------        --------------      -----    -------------------
DEPT  .F                             :0       Index
ILD   .OHMM                          :1       Induction Deep Resistivity    
RHOB  .G/C3                          :2       Bulk Density                  
DRHO  .G/C3                          :3       Bulk Density Correction       
CALI  .IN                            :4       Caliper                       
NPHI  .V/V                           :5       Thermal Neutron Porosity (original Ratio Method) in Selected Lithology
PROX  .OHMM                          :6       Proximity Resistivity (MPT)   
SN    .OHMM                          :7       Short Normal Resistivity (16 inch spacing)
SP    .MV                            :8       Spontaneous Potential         
GR    .GAPI                          :9       Gamma Ray                     
DT    .US/F                          :10      Delta-T (also called Slowness or Interval Transit Time)
~Ascii Data Section
# ...
   2316.00000       0.73900       2.13900       0.10200      12.87000       0.46683       1.72300       0.91000      25.31900      53.95900     164.70799 
   2316.50000       0.73900       2.16100       0.10600      12.84600       0.47610       1.31100       0.90700      25.39700      53.18000     164.27200 
   2317.00000       0.74263       2.15500       0.08900      12.71300       0.50797       1.24800       0.88400      25.10500      54.39000     165.63699 
   2317.50000       0.74483       2.17500       0.11800      12.78000       0.53665       1.27800       0.88500      24.75800      57.00700     166.43201 
   2318.00000       0.74556       2.13500       0.12600      13.00500       0.53745       1.31100       0.88500      24.57900      59.99200     160.87000 
   2318.50000       0.75074       2.07400       0.11800      13.14200       0.53426       1.32800       0.88400      24.39300      61.63700     163.51500 
   2319.00000       0.75904       2.04200       0.09500      13.00200       0.52072       1.36100       0.88300      24.35200      65.12900     160.99500 
   2319.50000       0.76907       2.01800       0.05000      12.85000       0.51195       1.43000       0.91800      24.03900      62.89700     173.99200 
   2320.00000       0.78001       2.03900       0.05500      12.69400       0.49963       1.29500       0.93600      23.78500      60.65900     175.98100 
   2320.50000       0.78832       2.05200       0.09100      12.44700       0.49203       1.34400       0.93500      23.78300      59.25000     167.75900 
   2321.00000       0.79831       2.03600       0.11500      12.70200       0.51633       1.39500       0.97100      23.58100      56.22200     168.28900 
   2321.50000       0.80683       2.01600       0.14700      12.88000       0.53347       1.32800       0.99100      23.33200      55.32700     167.62601 
   2322.00000       0.81203       1.97600       0.16700      13.15900       0.53745       1.32800       0.96300      23.25700      56.46000     175.71600 
   2322.50000       0.81378       1.95400       0.13100      13.38800       0.53745       1.26300       0.91500      23.52700      58.24000     175.18600 
   2323.00000       0.81553       1.99800       0.10600      13.71700       0.53506       1.28700       0.94100      24.10900      61.94700     164.17799 
   2323.50000       0.81378       2.02600       0.06800      13.81500       0.53586       1.32100       0.94000      23.99600      63.51700     164.70799 
   2324.00000       0.81203       2.07200       0.08600      13.01000       0.53705       1.37800       0.95900      23.81800      63.55900     169.54900 
   2324.50000       0.81029       2.08700       0.10700      12.76000       0.53506       1.32800       0.96400      24.06200      62.48200     175.71600 
   2325.00000       0.80683       2.10200       0.14000      12.92700       0.52629       1.36100       0.96500      24.33300      59.29800     174.78799 
   2325.50000       0.80170       2.10600       0.09600      13.02800       0.51514       1.27900       0.96500      23.59300      57.98800     175.31799 
   2326.00000       0.80170       2.10000       0.10200      13.01200       0.50717       1.31100       0.96100      23.22100      57.92200     176.51199 
   2326.50000       0.79831       2.11500       0.09500      13.07000       0.52709       1.27900       0.91200      23.78100      60.78400     177.04201 
   2327.00000       0.80000       2.10800       0.11700      13.16800       0.51912       1.24800       0.91200      24.00000      61.95200     176.91000 
   2327.50000       0.80000       2.06500       0.09200      13.29200       0.53187       1.24800       0.91100      24.86600      63.56100     175.71600 
   2328.00000       0.80000       2.03900       0.06500      13.47200       0.53506       1.29500       0.91000      24.58600      63.96000     175.91499 
   2328.50000       0.80340       2.04600       0.07400      13.28800       0.52869       1.32800       0.94000      24.29100      63.83400     176.24699 
   2329.00000       0.80683       2.05500       0.09400      13.21200       0.50598       1.31100       0.95800      24.03900      62.95300     176.64500 
   2329.50000       0.81029       2.06100       0.11700      12.98000       0.50637       1.39500       0.96400      23.25300      62.47100     177.00101 
   2330.00000       0.81378       2.04700       0.12600      12.67500       0.52789       1.48700       0.96400      23.32200      63.50600     176.24699 
   2330.50000       0.80856       2.02200       0.08500      12.52200       0.50637       1.50300       0.96500      24.06700      64.89900     177.57300 
   2331.00000       0.80340       2.00300       0.03900      12.34700       0.50199       1.32800       0.93600      23.79200      64.67500     179.16400 
   2331.50000       0.80170       2.01400       0.04300      12.26400       0.47849       1.26300       0.93700      23.72900      62.80100     179.42999 
   2332.00000       0.79831       2.02800       0.05500      12.28400       0.47012       1.36100       0.93300      23.27100      61.72900     178.65700 
   2332.50000       0.79412       2.02200       0.06200      12.30800       0.46574       1.27900       0.88400      22.82600      60.54100     178.63400 
   2333.00000       0.78832       2.00700       0.04800      12.38800       0.46335       1.23300       0.88500      22.46200      59.33900     178.03700 
   2333.50000       0.78342       2.01900       0.06300      12.51600       0.48327       1.27900       0.88400      22.70700      58.31300     181.15401 
   2334.00000       0.77858       2.06000       0.10300      12.73200       0.48088       1.24800       0.88300      23.73600      59.60900     183.40800 
   2334.50000       0.77698       2.07800       0.11000      12.94100       0.49681       1.36100       0.92000      24.58500      60.90900     182.21500 
   2335.00000       0.77143       2.08300       0.10800      12.99900       0.50717       1.29500       0.90800      24.53200      62.15600     180.49100 
   2335.50000       0.77064       2.09000       0.11200      13.04900       0.49841       1.26300       0.88900      24.14300      62.32600     179.16400 
   2336.00000       0.77064       2.08300       0.10000      13.04800       0.51594       1.24800       0.86400      24.08400      62.53100     179.56200 
   2336.50000       0.77064       2.07900       0.11300      12.90100       0.51195       1.26300       0.85600      24.26900      61.11400     180.09300 
   2337.00000       0.76907       2.06600       0.08800      12.84000       0.50478       1.27900       0.88400      24.28500      60.58700     180.62300 
   2337.50000       0.76907       2.07100       0.09700      12.86700       0.52072       1.26300       0.91100      23.28100      59.47600     181.41901 
   2338.00000       0.77064       2.07900       0.10300      12.93800       0.51833       1.29500       0.94000      22.70000      57.70900     181.88300 
   2338.50000       0.77698       2.06500       0.10200      12.96500       0.53187       1.27200       0.88900      23.47000      56.55400     182.21500 
   2339.00000       0.78019       2.05400       0.10100      13.03600       0.53625       1.29500       0.88500      23.53600      54.80700     181.61800 
   2339.50000       0.78342       2.03500       0.09000      13.08600       0.52789       1.28500       0.91000      23.54100      55.33800     181.41901 
   2340.00000       0.78565       2.06200       0.07500      13.08600       0.53221       1.27900       0.91100      23.50500      56.40000     182.08200 
   2340.50000       0.78668       2.07700       0.13700      13.00100       0.53665       1.31100       0.91200      23.57700      56.23000     182.08200 
   2341.00000       0.78997       2.06700       0.12700      13.23100       0.53665       1.26300       0.91200      23.28400      56.09600     180.88901 
   2341.50000       0.79328       2.05700       0.11200      13.11700       0.53665       1.21700       0.91100      22.50600      55.18400     179.92700 
