~Version Information
VERS  .          2.0                              :CWLS Log Ascii Standard - Version 2.0
WRAP  .          NO                               :One line per depth step
~Well Information Block
#MNEM.UNIT       Data Type                        Information
#---------       ---------                        -------------------------------
STRT  .F         1900.00000                       :START DEPTH
STOP  .F         3700.00000                       :STOP DEPTH
STEP  .F          0.50000                         :INCREMENT
NULL  .          -999.25                          :NULL DATA VALUE
COMP  .                                           :COMPANY
WELL  .          Cinta_H-01                       :WELL
FLD   .          Cinta                            :FIELD
LOC   .                                           :LOCATION
PROV  .                                           :PROVINCE
STAT  .                                           :STATE
CNTY  .                                           :COUNTY
CTRY  .                                           :COUNTRY
DATE  .                                           :DATE
UWI   .          ID0100133000                     :UNIQUE WELL UWI
LIC   .                                           :LICENSE NUMBER
API   .                                           :API NUMBER
SRVC  .          SLB                              :SERVICE COMPANY
~Parameter Information Block
#MNEM.UNIT       Value                            Description
#---------       ---------                        -------------
LONG  .DEG       106.273981                       :Well Surface Location
LATI  .DEG       -5.423425                        :Well Surface Location
XWELL .M         308784.920000                    :X-coordinate of Well Head
YWELL .M         9400315.870000                   :Y-coordinate of Well Head
~Curve Information Block
#MNEM.UNIT       API Code            Curve    Description
#--------        --------------      -----    -------------------
DEPT  .F                             :0       Index
ILD   .OHMM                          :1       Induction Deep Resistivity    
RHOB  .G/C3                          :2       Bulk Density                  
DRHO  .G/C3                          :3       Bulk Density Correction       
CALI  .IN                            :4       Caliper                       
NPHI  .V/V                           :5       Thermal Neutron Porosity (original Ratio Method) in Selected Lithology
PROX  .OHMM                          :6       Proximity Resistivity (MPT)   
SN    .OHMM                          :7       Short Normal Resistivity (16 inch spacing)
SP    .MV                            :8       Spontaneous Potential         
GR    .GAPI                          :9       Gamma Ray                     
DT    .US/F                          :10      Delta-T (also called Slowness or Interval Transit Time)
~Ascii Data Section
# ...
   2420.00000       1.42615       2.12100       0.11100      11.56800       0.42757       3.67400       1.45700      23.06600      42.66900     130.35800 
   2420.50000       1.38572       2.15700       0.10800      11.54300       0.39402       2.72800       1.49300      24.34800      42.20000     100.11900 
   2421.00000       1.33805       2.23400       0.09700      11.56100       0.37052       1.85600       1.44100      25.08600      42.85300     112.18800 
   2421.50000       1.29231       2.24500       0.08300      11.64500       0.36295       2.50100       1.31700      24.84500      44.06100     121.47200 
   2422.00000       1.22528       2.21700       0.04800      11.90900       0.38287       1.62800       1.22700      24.33700      45.81500     133.00000 
   2422.50000       1.17209       2.19400       0.04600      12.16000       0.40518       1.32800       1.20500      23.26600      47.18500     142.56000 
   2423.00000       1.10044       2.13100       0.07600      12.38700       0.44263       1.43100       1.12700      21.18300      46.24400     143.62100 
   2423.50000       0.99868       2.06100       0.08200      12.59900       0.51514       1.54100       1.09700      20.63900      43.35000     143.48801 
   2424.00000       1.00968       2.04700       0.10300      12.74200       0.53506       1.44800       1.06900      20.61000      39.55300     143.10699 
   2424.50000       0.96799       2.00600       0.07700      12.70000       0.53506       1.50300       1.07000      20.90700      38.83000     142.56000 
   2425.00000       0.95817       1.99700       0.06000      12.70100       0.52112       1.58000       1.07000      21.14600      39.36800     143.88600 
   2425.50000       0.95817       1.99300       0.04300      12.76100       0.48327       1.58000       1.07000      21.35800      39.44400     145.34500 
   2426.00000       0.96306       2.00400       0.06100      12.82800       0.48088       1.52200       1.07000      21.18800      40.69600     144.54900 
   2426.50000       0.96552       2.02200       0.09200      12.94600       0.49841       1.56000       1.07000      21.10000      41.65200     143.48801 
   2427.00000       0.96552       2.02900       0.10700      12.83800       0.50120       1.58000       1.07000      21.06500      41.22700     140.50400 
   2427.50000       0.97048       2.01500       0.08500      13.06300       0.51355       1.58000       1.07000      21.25100      40.97300     138.18300 
   2428.00000       0.99638       2.00100       0.04200      13.29300       0.48685       1.58000       1.07000      21.22400      40.62700     141.03400 
   2428.50000       1.01750       2.01000       0.03600      12.78000       0.47371       1.58000       1.07100      21.39000      39.41000     141.76401 
   2429.00000       1.06931       2.02300       0.05400      12.76900       0.49363       1.60000       1.08300      21.38300      38.82500     140.63699 
   2429.50000       1.12333       2.02800       0.08200      12.93000       0.48645       1.61600       1.13100      21.68500      38.12800     140.43800 
   2430.00000       1.17209       2.01800       0.06300      12.81400       0.46972       1.63100       1.17200      21.75800      36.96200     126.64500 
   2430.50000       1.20574       2.02600       0.04700      13.36000       0.44263       1.70200       1.25700      21.94300      36.08500     131.99899 
   2431.00000       1.25790       2.09900       0.09500      13.93100       0.41873       2.65300       1.30400      20.91400      35.84300     101.44600 
   2431.50000       1.31478       2.09900       0.10400      14.30800       0.42271       5.60400       1.30400      19.79700      36.86100     114.97300 
   2432.00000       1.39741       2.08400       0.11600      13.36400       0.43386       1.60000       1.46000      18.35800      38.00200     136.98900 
   2432.50000       1.42373       2.07800       0.12700      12.45500       0.43386       1.78900       1.51500      17.44700      38.93300     121.93600 
   2433.00000       1.40782       2.09200       0.14000      12.21500       0.42032       1.74500       1.51700      18.45700      40.26900     111.12700 
   2433.50000       1.38208       2.10900       0.11600      11.92700       0.39960       1.88000       1.40700      20.94900      42.41300     110.19900 
   2434.00000       1.36709       2.14700       0.08200      12.30100       0.36271       1.91500       1.47300      23.82800      44.65900     110.19900 
   2434.50000       1.38716       2.20500       0.05400      12.39400       0.34940       2.05000       1.53200      24.77800      45.74800     151.31300 
   2435.00000       1.40782       2.24700       0.07000      12.45100       0.36135       1.62000       1.49500      24.78200      44.95200     136.12700 
   2435.50000       1.40260       2.22100       0.08100      12.51200       0.35259       1.81100       1.45400      24.40400      41.54400     124.39000 
   2436.00000       1.36709       2.22900       0.09200      12.49200       0.35390       3.86100       1.40800      24.37700      40.19200     136.85699 
   2436.50000       1.31022       2.24700       0.07600      12.44200       0.35100       4.71000       1.43200      24.80300      39.63600     147.99699 
   2437.00000       1.25790       2.22800       0.05200      12.44100       0.37528       3.01300       1.46800      24.88800      39.14000     132.81200 
   2437.50000       1.23732       2.19100       0.03800      12.55000       0.40120       4.31800       1.34500      23.70700      39.94000     112.85100 
   2438.00000       1.24547       2.18800       0.07100      12.54900       0.44821       3.24500       1.30400      22.57900      42.13900     123.29600 
   2438.50000       1.24138       2.15300       0.08900      12.53300       0.44343       1.74500       1.31300      22.42300      44.46700     131.95000 
   2439.00000       1.20921       2.13000       0.07100      12.63400       0.41554       1.58000       1.35100      22.20000      44.18500     134.07201 
   2439.50000       1.14372       2.12400       0.05700      12.95200       0.40040       1.76700       1.28300      21.59700      43.97400     122.26800 
   2440.00000       1.08465       2.14000       0.07000      12.70800       0.40040       3.76700       1.18500      21.53900      43.70700     122.86500 
   2440.50000       1.05146       2.16500       0.08100      12.37400       0.40359       2.84700       1.22300      23.17900      43.40100     128.23599 
   2441.00000       1.07234       2.19500       0.07700      12.20700       0.41394       1.68100       1.31400      23.28600      43.03000     139.37700 
   2441.50000       1.10435       2.20100       0.07900      12.24800       0.45054       1.58000       1.25500      22.21000      43.32800     143.09000 
   2442.00000       1.14719       2.12100       0.07100      12.37100       0.48008       1.51300       1.23100      20.38700      42.27900     141.46600 
   2442.50000       1.18681       2.06200       0.08500      12.39500       0.47610       1.62000       1.29200      20.85400      39.81900     137.25500 
   2443.00000       1.21739       2.07100       0.12000      12.32900       0.48327       1.70200       1.35700      21.89200      38.64700     125.25200 
   2443.50000       1.22528       2.08600       0.13200      12.51400       0.47849       1.74500       1.38400      21.88800      38.58200     115.23900 
   2444.00000       1.23732       2.11500       0.13300      12.71800       0.46414       3.12700       1.35600      21.87300      38.15100     109.93400 
   2444.50000       1.26633       2.14600       0.12200      12.95200       0.44104       4.10900       1.38100      22.76500      37.83600     115.90200 
   2445.00000       1.31478       2.14600       0.02200      13.03600       0.39721       2.01300       1.44400      23.47900      39.22900     132.08200 
   2445.50000       1.35727       2.16800       0.01200      13.08100       0.38127       1.76700       1.44300      23.46900      41.13800     136.19400 
