~Version Information
VERS  .          2.0                              :CWLS Log Ascii Standard - Version 2.0
WRAP  .          NO                               :One line per depth step
~Well Information Block
#MNEM.UNIT       Data Type                        Information
#---------       ---------                        -------------------------------
STRT  .F         1900.00000                       :START DEPTH
STOP  .F         3700.00000                       :STOP DEPTH
STEP  .F          0.50000                         :INCREMENT
NULL  .          -999.25                          :NULL DATA VALUE
COMP  .                                           :COMPANY
WELL  .          Cinta_H-01                       :WELL
FLD   .          Cinta                            :FIELD
LOC   .                                           :LOCATION
PROV  .                                           :PROVINCE
STAT  .                                           :STATE
CNTY  .                                           :COUNTY
CTRY  .                                           :COUNTRY
DATE  .                                           :DATE
UWI   .          ID0100133000                     :UNIQUE WELL UWI
LIC   .                                           :LICENSE NUMBER
API   .                                           :API NUMBER
SRVC  .          SLB                              :SERVICE COMPANY
~Parameter Information Block
#MNEM.UNIT       Value                            Description
#---------       ---------                        -------------
LONG  .DEG       106.273981                       :Well Surface Location
LATI  .DEG       -5.423425                        :Well Surface Location
XWELL .M         308784.920000                    :X-coordinate of Well Head
YWELL .M         9400315.870000                   :Y-coordinate of Well Head
~Curve Information Block
#MNEM.UNIT       API Code            Curve    Description
#--------        --------------      -----    -------------------
DEPT  .F                             :0       Index
ILD   .OHMM                          :1       Induction Deep Resistivity    
RHOB  .G/C3                          :2       Bulk Density                  
DRHO  .G/C3                          :3       Bulk Density Correction       
CALI  .IN                            :4       Caliper                       
NPHI  .V/V                           :5       Thermal Neutron Porosity (original Ratio Method) in Selected Lithology
PROX  .OHMM                          :6       Proximity Resistivity (MPT)   
SN    .OHMM                          :7       Short Normal Resistivity (16 inch spacing)
SP    .MV                            :8       Spontaneous Potential         
GR    .GAPI                          :9       Gamma Ray                     
DT    .US/F                          :10      Delta-T (also called Slowness or Interval Transit Time)
~Ascii Data Section
# ...
   2212.00000       0.74630       1.63000       0.06400      17.26800       0.53745       1.34400       0.86400      19.58300      37.32300     198.93401 
   2212.50000       0.74045       1.57500       0.04900      17.41000       0.53745       1.26300       0.88300      20.31600      39.12500     200.31200 
   2213.00000       0.73185       1.47400       0.04100      15.90200       0.53745       1.29500       0.88500      20.06900      39.74700     202.24100 
   2213.50000       0.71795       1.44300       0.04200      16.56200       0.53745       1.23300       0.86000      20.03300      40.45400     197.20200 
   2214.00000       0.69935       1.47200       0.05100      17.27000       0.53745       1.20200       0.86100      19.90400      40.71300     199.19099 
   2214.50000       0.67925       1.46800       0.04800      14.87300       0.53745       1.21700       0.83300      20.08200      41.22100     191.76401 
   2215.00000       0.66258       1.45800       0.04400      13.54700       0.53745       1.18000       0.79700      19.90600      42.32000     194.68201 
   2215.50000       0.63264       1.51600       0.05700      12.92700       0.53745       1.17300       0.75900      19.14100      42.61800     182.86099 
   2216.00000       0.62222       1.61800       0.06000      12.81500       0.53586       1.15800       0.74600      20.32000      43.02500     169.74800 
   2216.50000       0.62428       1.69800       0.03900      12.45700       0.53745       1.17300       0.74900      21.11100      44.85400     174.72099 
   2217.00000       0.62635       1.69700       0.04700      13.08900       0.53745       1.00400       0.75200      20.47600      45.09500     180.28000 
   2217.50000       0.62739       1.69900       0.07100      15.38600       0.53745       1.07500       0.75200      20.68700      44.15600     185.83900 
   2218.00000       0.62948       1.65900       0.07300      14.52400       0.53745       1.16600       0.78000      21.63400      42.96200     191.63100 
   2218.50000       0.63158       1.55700       0.06300      13.92100       0.53745       1.21700       0.80800      21.10200      41.97600     192.82500 
   2219.00000       0.63476       1.48600       0.05500      14.33700       0.53745       1.13700       0.80100      19.49100      41.69900     192.56000 
   2219.50000       0.63905       1.54800       0.05000      16.61000       0.53745       1.01000       0.78100      20.08000      41.76700     193.48801 
   2220.00000       0.64340       1.70300       0.03400      17.52500       0.53745       0.99800       0.78000      21.37000      47.28300     191.97099 
   2220.50000       0.64231       1.83900       0.02600      14.09300       0.53745       1.06200       0.77900      21.76500      51.43900     189.64200 
   2221.00000       0.63797       1.91700       0.01800      13.06000       0.52709       1.03600       0.77900      21.57100      52.43600     177.01199 
   2221.50000       0.63476       1.93400       0.01100      13.16400       0.48247       1.03600       0.78000      21.18500      52.71800     173.17900 
   2222.00000       0.63370       1.94800       0.00800      13.60400       0.47371       1.02300       0.75100      20.85000      53.03900     169.34599 
   2222.50000       0.64450       1.95700       0.01500      13.86100       0.48486       1.01000       0.75200      20.36300      51.99100     165.51300 
   2223.00000       0.66608       1.96500       0.02300      13.85400       0.49044       1.02300       0.75200      20.63400      51.18000     161.67999 
   2223.50000       0.68790       1.96400       0.03100      13.71800       0.49044       0.98600       0.75100      20.62200      50.58200     157.84700 
   2224.00000       0.70986       1.97300       0.05600      12.90300       0.48704       1.07500       0.77800      20.26100      49.99500     151.31300 
   2224.50000       0.71795       1.98000       0.07900      12.65200       0.50147       1.18700       0.85600      20.30300      49.48800     152.37399 
   2225.00000       0.71795       1.96500       0.07400      12.54900       0.52948       1.32000       0.85900      20.61800      48.18300     151.57800 
   2225.50000       0.71795       1.94800       0.07500      13.11200       0.53506       1.36100       0.85800      21.35500      47.76700     167.75900 
   2226.00000       0.71795       1.94200       0.09100      12.92900       0.53586       1.26300       0.85200      21.68400      48.19400     172.66600 
   2226.50000       0.71388       1.94700       0.11900      12.40200       0.53586       1.10200       0.81300      21.57000      49.10400     179.03200 
   2227.00000       0.70457       1.92200       0.08900      12.38600       0.53745       1.01000       0.80600      21.46700      53.58900     180.49100 
   2227.50000       0.68170       1.87900       0.06000      12.39300       0.53745       1.03600       0.80200      21.40500      55.93400     182.34700 
   2228.00000       0.66726       1.91600       0.05800      12.33600       0.53665       1.10200       0.81200      21.40900      57.64700     182.01601 
   2228.50000       0.66142       1.96700       0.08300      12.38700       0.53665       1.08900       0.78600      21.09700      59.49300     183.14301 
   2229.00000       0.66608       1.98100       0.11300      12.38800       0.53665       1.13000       0.77800      21.47900      58.17200     191.56500 
   2229.50000       0.67560       1.95100       0.06600      12.30100       0.53665       1.23300       0.80600      21.73400      56.81400     197.20200 
   2230.00000       0.68727       1.93500       0.04900      12.28400       0.53665       1.18700       0.84100      21.93400      54.42900     200.78200 
   2230.50000       0.70326       1.92600       0.04200      12.27800       0.53665       1.24800       0.88400      21.86500      51.05200     201.31300 
   2231.00000       0.71523       1.91600       0.05600      12.44900       0.53665       1.31100       0.91100      21.41600      49.98900     194.74800 
   2231.50000       0.72483       1.91100       0.06500      12.58200       0.53665       1.11600       0.93200      20.79500      49.51600     170.14600 
   2232.00000       0.73612       1.91000       0.06900      12.57700       0.53665       1.24800       0.93900      21.10700      49.95600     174.18401 
   2232.50000       0.74630       1.91000       0.07600      12.69400       0.53665       1.23300       0.91200      21.16000      48.26000     185.26500 
   2233.00000       0.76751       1.91300       0.08700      12.88900       0.53665       1.17300       0.88300      21.21500      46.88600     168.15601 
   2233.50000       0.78668       1.90100       0.10300      12.81000       0.53665       1.26300       0.88300      21.37700      44.66000     184.33701 
   2234.00000       0.82085       1.85900       0.04700      13.00000       0.53745       1.27900       0.91800      21.52900      45.21600     180.59100 
   2234.50000       0.83536       1.88700       0.03200      12.91500       0.53506       1.46600       0.97600      21.67200      46.41300     176.37900 
   2235.00000       0.85424       1.95000       0.05600      12.76000       0.52231       1.43000       1.01400      21.15100      47.28300     170.34500 
   2235.50000       0.87399       1.93200       0.06700      12.64500       0.52709       1.39500       1.01600      21.75200      47.29600     157.01601 
   2236.00000       0.89893       1.94800       0.05600      12.54900       0.53028       1.33600       1.01700      21.92300      46.98800     158.87300 
   2236.50000       0.92989       1.94200       0.08200      12.63400       0.53665       1.32800       1.01700      21.58400      47.09600     153.30200 
   2237.00000       0.94618       1.91000       0.11700      12.73100       0.53665       1.36100       1.01800      20.68700      47.62700     155.29201 
   2237.50000       0.95094       1.87800       0.07600      12.82000       0.53506       1.34400       1.01900      20.63700      47.84500     142.29401 
