~Version Information
VERS  .          2.0                              :CWLS Log Ascii Standard - Version 2.0
WRAP  .          NO                               :One line per depth step
~Well Information Block
#MNEM.UNIT       Data Type                        Information
#---------       ---------                        -------------------------------
STRT  .F         1900.00000                       :START DEPTH
STOP  .F         3700.00000                       :STOP DEPTH
STEP  .F          0.50000                         :INCREMENT
NULL  .          -999.25                          :NULL DATA VALUE
COMP  .                                           :COMPANY
WELL  .          Cinta_H-01                       :WELL
FLD   .          Cinta                            :FIELD
LOC   .                                           :LOCATION
PROV  .                                           :PROVINCE
STAT  .                                           :STATE
CNTY  .                                           :COUNTY
CTRY  .                                           :COUNTRY
DATE  .                                           :DATE
UWI   .          ID0100133000                     :UNIQUE WELL UWI
LIC   .                                           :LICENSE NUMBER
API   .                                           :API NUMBER
SRVC  .          SLB                              :SERVICE COMPANY
~Parameter Information Block
#MNEM.UNIT       Value                            Description
#---------       ---------                        -------------
LONG  .DEG       106.273981                       :Well Surface Location
LATI  .DEG       -5.423425                        :Well Surface Location
XWELL .M         308784.920000                    :X-coordinate of Well Head
YWELL .M         9400315.870000                   :Y-coordinate of Well Head
~Curve Information Block
#MNEM.UNIT       API Code            Curve    Description
#--------        --------------      -----    -------------------
DEPT  .F                             :0       Index
ILD   .OHMM                          :1       Induction Deep Resistivity    
RHOB  .G/C3                          :2       Bulk Density                  
DRHO  .G/C3                          :3       Bulk Density Correction       
CALI  .IN                            :4       Caliper                       
NPHI  .V/V                           :5       Thermal Neutron Porosity (original Ratio Method) in Selected Lithology
PROX  .OHMM                          :6       Proximity Resistivity (MPT)   
SN    .OHMM                          :7       Short Normal Resistivity (16 inch spacing)
SP    .MV                            :8       Spontaneous Potential         
GR    .GAPI                          :9       Gamma Ray                     
DT    .US/F                          :10      Delta-T (also called Slowness or Interval Transit Time)
~Ascii Data Section
# ...
   2758.00000       0.76441       2.12200       0.14800      13.24900       0.32072       1.18700       0.88500      31.33800      59.20900     143.22301 
   2758.50000       0.75676       2.08300       0.10700      13.59500       0.31514       1.21700       0.88500      30.73800      59.08500     141.49899 
   2759.00000       0.75374       2.09700       0.07700      14.44600       0.31474       1.23300       0.88500      30.88500      59.97400     140.63699 
   2759.50000       0.75374       2.10600       0.04600      14.63100       0.31355       1.24800       0.88400      30.44500      61.16100     140.76900 
   2760.00000       0.75570       2.13500       0.05100      13.91200       0.31195       1.23300       0.87000      30.45700      60.81600     141.63100 
   2760.50000       0.75676       2.14400       0.04900      14.13200       0.31036       1.26300       0.88400      30.47000      61.86900     142.69200 
   2761.00000       0.75827       2.14100       0.05500      14.65800       0.30797       1.29500       0.88500      30.16100      62.59300     141.89700 
   2761.50000       0.75980       2.13200       0.05700      14.55500       0.29602       1.26300       0.88500      30.48700      61.32000     141.10100 
   2762.00000       0.75827       2.13100       0.07800      14.32500       0.30319       1.23300       0.88500      30.18600      60.03600     139.90700 
   2762.50000       0.75827       2.13400       0.08700      14.86600       0.30797       1.27900       0.88500      30.37300      57.78400     138.44800 
   2763.00000       0.75676       2.13200       0.07800      14.32000       0.32072       1.27900       0.88500      31.03700      55.29200     139.24400 
   2763.50000       0.75374       2.10500       0.06300      13.42500       0.33267       1.26300       0.88500      31.52100      54.76400     140.17200 
   2764.00000       0.75074       2.10300       0.08300      13.35200       0.34781       1.27900       0.88500      31.99200      54.73000     141.10100 
   2764.50000       0.74777       2.10800       0.12600      13.42300       0.36215       1.21700       0.88500      32.33500      55.84500     143.48801 
   2765.00000       0.74483       2.08900       0.15000      13.69000       0.38526       1.20200       0.88500      32.32800      56.75400     143.62100 
   2765.50000       0.74190       2.04200       0.14200      15.43500       0.37649       1.26300       0.88500      31.97600      57.69900     143.09000 
   2766.00000       0.74045       2.00700       0.12400      14.96600       0.37171       1.24800       0.88500      31.02100      58.69900     142.29401 
   2766.50000       0.73900       1.99900       0.12800      14.19800       0.36853       1.29500       0.87200      32.06500      58.16700     140.57001 
   2767.00000       0.73900       2.01400       0.13700      14.55400       0.35976       1.23300       0.88600      32.33700      57.99800     139.24400 
   2767.50000       0.74190       2.02800       0.15100      15.14700       0.37092       1.24800       0.90600      32.31900      56.79900     139.50900 
   2768.00000       0.74483       2.04800       0.15700      14.70100       0.38526       1.23300       0.91100      32.30400      56.22700     140.83600 
   2768.50000       0.74926       2.06100       0.15200      14.02200       0.37096       1.18700       0.90400      32.60500      56.79200     141.49899 
   2769.00000       0.74926       2.06400       0.13900      14.10900       0.35418       1.27100       0.86600      32.12100      59.19200     139.77499 
   2769.50000       0.74926       2.04900       0.12500      14.68100       0.36056       1.26300       0.86500      31.26800      60.06000     138.84599 
   2770.00000       0.74851       2.03800       0.10800      14.86500       0.36853       1.27900       0.88400      31.81400      59.38100     139.11099 
   2770.50000       0.74630       2.06400       0.09700      13.97900       0.36693       1.24800       0.88400      31.78400      58.23500     139.50900 
   2771.00000       0.74483       2.09300       0.11900      13.61100       0.36534       1.26300       0.87200      31.78000      56.72300     140.83600 
   2771.50000       0.74190       2.12300       0.15600      13.67400       0.35817       1.24800       0.85900      31.79300      56.36000     140.96800 
   2772.00000       0.73900       2.09000       0.14200      14.00700       0.36614       1.21000       0.85900      31.50700      56.75100     140.30499 
   2772.50000       0.73469       2.06000       0.11200      14.48600       0.36773       1.18700       0.85900      31.04000      57.83800     140.17200 
   2773.00000       0.72903       2.08200       0.10000      14.40400       0.35817       1.22500       0.85900      30.51500      58.79700     140.76900 
   2773.50000       0.72483       2.11100       0.09300      14.26400       0.35737       1.23300       0.85900      30.69600      59.76100     141.76401 
   2774.00000       0.72206       2.20000       0.15900      14.08100       0.36056       1.21700       0.85900      31.29300      60.86000     141.89700 
   2774.50000       0.71795       2.17200       0.18000      13.77600       0.35817       1.26300       0.85900      31.29600      60.36800     142.16200 
   2775.00000       0.71523       2.16300       0.15600      14.20400       0.35020       1.23300       0.85900      31.71200      59.54900     141.56500 
   2775.50000       0.71795       2.16500       0.14500      14.54000       0.34622       1.21700       0.85900      31.49500      59.90200     141.89700 
   2776.00000       0.72137       2.15800       0.13100      14.36800       0.35578       1.21700       0.85300      31.78700      60.12200     142.29401 
   2776.50000       0.72206       2.15100       0.10900      14.27300       0.35578       1.26300       0.83400      31.23300      60.14800     141.49899 
   2777.00000       0.72345       2.14200       0.09500      14.27100       0.35657       1.21700       0.83300      30.25800      59.43200     140.17200 
   2777.50000       0.72483       2.13000       0.07300      14.26200       0.35418       1.18700       0.84500      30.42200      58.02800     140.30499 
   2778.00000       0.72832       2.13700       0.07100      13.94300       0.34940       1.21700       0.86100      31.07300      57.76500     142.16200 
   2778.50000       0.73043       2.15700       0.10200      13.82900       0.34064       1.18700       0.85900      31.77200      58.00700     144.81400 
   2779.00000       0.73043       2.16100       0.11300      13.77000       0.34143       1.15800       0.85900      31.97800      58.36700     145.47701 
   2779.50000       0.72903       2.13900       0.09000      13.65900       0.34462       1.14400       0.86000      32.05800      58.29900     144.94701 
   2780.00000       0.72657       2.10800       0.04900      13.42000       0.34382       1.20300       0.81100      31.89400      58.14300     144.01900 
   2780.50000       0.72206       2.11600       0.05900      13.39700       0.33984       1.31100       0.80600      32.10100      58.54800     142.69200 
   2781.00000       0.71523       2.15200       0.08500      13.36700       0.34542       1.19500       0.80600      32.43000      59.55100     142.02901 
   2781.50000       0.71119       2.18500       0.11900      13.44300       0.34622       1.15800       0.80500      32.51800      60.51000     142.42700 
   2782.00000       0.69935       2.20100       0.16900      13.49900       0.34781       1.18700       0.80500      32.51700      59.21200     143.02400 
   2782.50000       0.68915       2.17300       0.13500      13.38300       0.34781       1.18700       0.79100      32.84800      58.18900     141.36600 
   2783.00000       0.67681       2.14800       0.12700      13.56400       0.34542       1.18700       0.80600      32.75800      57.79300     140.76900 
   2783.50000       0.66843       2.14700       0.12600      13.72200       0.35259       1.17300       0.75800      32.90500      58.56200     141.63100 
