~Version Information
VERS  .          2.0                              :CWLS Log Ascii Standard - Version 2.0
WRAP  .          NO                               :One line per depth step
~Well Information Block
#MNEM.UNIT       Data Type                        Information
#---------       ---------                        -------------------------------
STRT  .F         1900.00000                       :START DEPTH
STOP  .F         3700.00000                       :STOP DEPTH
STEP  .F          0.50000                         :INCREMENT
NULL  .          -999.25                          :NULL DATA VALUE
COMP  .                                           :COMPANY
WELL  .          Cinta_H-01                       :WELL
FLD   .          Cinta                            :FIELD
LOC   .                                           :LOCATION
PROV  .                                           :PROVINCE
STAT  .                                           :STATE
CNTY  .                                           :COUNTY
CTRY  .                                           :COUNTRY
DATE  .                                           :DATE
UWI   .          ID0100133000                     :UNIQUE WELL UWI
LIC   .                                           :LICENSE NUMBER
API   .                                           :API NUMBER
SRVC  .          SLB                              :SERVICE COMPANY
~Parameter Information Block
#MNEM.UNIT       Value                            Description
#---------       ---------                        -------------
LONG  .DEG       106.273981                       :Well Surface Location
LATI  .DEG       -5.423425                        :Well Surface Location
XWELL .M         308784.920000                    :X-coordinate of Well Head
YWELL .M         9400315.870000                   :Y-coordinate of Well Head
~Curve Information Block
#MNEM.UNIT       API Code            Curve    Description
#--------        --------------      -----    -------------------
DEPT  .F                             :0       Index
ILD   .OHMM                          :1       Induction Deep Resistivity    
RHOB  .G/C3                          :2       Bulk Density                  
DRHO  .G/C3                          :3       Bulk Density Correction       
CALI  .IN                            :4       Caliper                       
NPHI  .V/V                           :5       Thermal Neutron Porosity (original Ratio Method) in Selected Lithology
PROX  .OHMM                          :6       Proximity Resistivity (MPT)   
SN    .OHMM                          :7       Short Normal Resistivity (16 inch spacing)
SP    .MV                            :8       Spontaneous Potential         
GR    .GAPI                          :9       Gamma Ray                     
DT    .US/F                          :10      Delta-T (also called Slowness or Interval Transit Time)
~Ascii Data Section
# ...
   2550.00000       0.81203       2.06100       0.10000      12.88100       0.46972       1.32800       0.91100      27.86200      47.81400     160.19901 
   2550.50000       0.77858       2.06700       0.11300      12.64700       0.45458       1.23300       0.91400      27.54300      46.82300     161.52499 
   2551.00000       0.76056       2.01600       0.09200      12.64000       0.46892       1.22500       0.88800      27.64000      47.03500     164.17799 
   2551.50000       0.73612       1.94200       0.04500      13.00400       0.50000       1.15800       0.83100      27.73200      48.60800     167.50999 
   2552.00000       0.72206       1.93400       0.03900      13.32000       0.52869       1.11600       0.83300      28.13700      50.24300     169.61501 
   2552.50000       0.70654       1.90500       0.05900      12.84800       0.53745       1.14400       0.83200      28.10900      50.69600     168.15601 
   2553.00000       0.69167       1.85100       0.04200      13.71800       0.53745       1.15800       0.83200      28.26700      49.89500     173.32899 
   2553.50000       0.68416       1.78900       0.02500      14.13600       0.53745       1.14400       0.83000      28.34500      45.52500     167.22800 
   2554.00000       0.68915       1.72600       0.07300      12.77500       0.53745       1.11600       0.86000      28.61300      39.91900     170.61000 
   2554.50000       0.70457       1.65100       0.09700      13.07900       0.53745       1.14400       0.85900      28.59400      38.43500     174.25700 
   2555.00000       0.72973       1.67000       0.09000      14.47700       0.53665       1.18700       0.85800      28.15100      39.12700     175.05299 
   2555.50000       0.75827       1.74200       0.09700      14.47200       0.53665       1.20200       0.88700      28.27600      39.65700     159.85400 
   2556.00000       0.76364       1.89000       0.09100      13.76100       0.52311       1.18800       0.88200      27.39700      39.68300     135.26500 
   2556.50000       0.75224       1.98500       0.03500      13.10300       0.50080       1.31100       0.94000      26.74000      38.62400     128.76700 
   2557.00000       0.72903       2.01600       0.04200      13.51200       0.48725       1.99400       0.91900      27.53600      37.23200     141.17500 
   2557.50000       0.72069       2.12600       0.07000      13.82200       0.45060       3.72000       0.85800      28.58700      35.49800     137.38699 
   2558.00000       0.72206       2.18500       0.06100      12.30800       0.40120       1.56100       0.89400      29.01700      36.22900     146.80400 
   2558.50000       0.72114       2.20800       0.06500      12.17800       0.38845       1.02300       0.80600      28.07400      43.13400     157.67900 
   2559.00000       0.71254       2.18000       0.10700      12.26600       0.43546       1.04900       0.77600      28.26500      45.67100     159.96700 
   2559.50000       0.66843       2.05100       0.07800      12.36600       0.51290       0.95000       0.77800      28.31600      48.72300     159.66800 
   2560.00000       0.65341       1.97300       0.07200      12.29900       0.53108       0.93800       0.77900      28.41000      47.44900     154.49600 
   2560.50000       0.64450       1.95600       0.06400      12.20400       0.52072       0.98600       0.77900      26.83300      44.47700     141.63100 
   2561.00000       0.64781       1.94700       0.04700      12.11900       0.51036       0.93800       0.78000      27.50400      42.53900     147.99699 
   2561.50000       0.65455       1.94800       0.04300      12.14300       0.50319       0.98600       0.75100      27.78200      43.12000     151.55901 
   2562.00000       0.66962       1.96600       0.04700      12.42100       0.49203       1.06900       0.75200      27.72200      42.66700     161.12700 
   2562.50000       0.67081       1.98300       0.05100      12.42200       0.49761       1.08900       0.78200      27.33400      44.14700     162.85100 
   2563.00000       0.66726       1.99900       0.04800      12.34200       0.49203       1.10200       0.78000      27.27400      45.10700     163.78000 
   2563.50000       0.66026       2.00600       0.04300      12.33400       0.50637       1.07500       0.77800      27.28500      45.49200     154.62900 
   2564.00000       0.65004       1.99000       0.03700      12.29300       0.52072       0.99800       0.80800      26.92600      45.43100     152.24100 
   2564.50000       0.64014       1.99800       0.03900      12.29500       0.53506       0.98600       0.80700      27.25100      44.74900     158.01100 
   2565.00000       0.63000       2.01000       0.04600      12.28400       0.53108       1.03600       0.77800      27.92900      44.69000     156.08800 
   2565.50000       0.62531       2.01200       0.04300      12.29500       0.51434       1.07500       0.75000      28.27500      44.02700     155.39101 
   2566.00000       0.62120       2.02000       0.04400      12.44900       0.53506       1.08900       0.75200      28.11500      43.26500     154.49600 
   2566.50000       0.61614       2.02100       0.04800      12.41900       0.53665       1.02300       0.75300      28.64600      43.07900     166.16701 
   2567.00000       0.61116       1.99800       0.04600      12.36100       0.53665       1.01000       0.75300      29.24600      43.35700     163.34399 
   2567.50000       0.61264       1.96700       0.05900      12.40300       0.53665       1.08900       0.75300      29.66900      45.21500     159.80099 
   2568.00000       0.62222       1.93600       0.07000      12.44600       0.53665       1.05500       0.75200      29.65400      44.64000     163.24899 
   2568.50000       0.63158       1.89300       0.07800      12.44800       0.53665       1.03600       0.78200      29.04900      43.61800     161.39301 
   2569.00000       0.64231       1.87900       0.12100      12.55100       0.53665       1.03600       0.78200      28.52500      43.78900     158.93900 
   2569.50000       0.65229       1.85200       0.14600      13.51400       0.53745       1.03600       0.80000      28.39300      44.90800     156.48500 
   2570.00000       0.66692       1.80100       0.14200      14.67000       0.53745       1.11600       0.80500      28.94500      45.57600     152.92400 
   2570.50000       0.68416       1.80100       0.14200      14.94500       0.53745       1.24800       0.83500      29.31500      45.66200     146.93600 
   2571.00000       0.70195       1.91500       0.13800      14.65900       0.53745       1.26300       0.83300      29.69000      45.35700     141.76401 
   2571.50000       0.72483       2.00300       0.14000      14.36500       0.53745       1.18700       0.83300      29.89400      46.80000     142.56000 
   2572.00000       0.74045       2.04200       0.16700      14.04000       0.53745       1.11600       0.83200      29.80000      47.37100     144.01900 
   2572.50000       0.75000       2.04400       0.17900      13.74200       0.53745       1.18700       0.82600      29.27600      49.55500     142.82500 
   2573.00000       0.75676       2.02800       0.17000      13.50300       0.53426       1.21700       0.80800      28.50100      51.54500     137.78500 
   2573.50000       0.76596       2.01900       0.15700      14.22600       0.51594       1.24800       0.81100      28.69200      51.02000     147.86501 
   2574.00000       0.77698       2.03200       0.15800      14.02000       0.52311       1.39500       0.85900      29.12600      49.86000     148.85899 
   2574.50000       0.78684       2.04300       0.17900      13.62900       0.53586       1.41300       0.88800      29.59500      49.90200     159.40300 
   2575.00000       0.79915       2.00600       0.16500      13.48000       0.53665       1.23300       0.88600      29.39200      51.45800     155.81000 
   2575.50000       0.80170       1.93700       0.15600      13.63600       0.53665       1.21700       0.88500      29.12000      51.97800     162.45399 
