~Version Information
VERS  .          2.0                              :CWLS Log Ascii Standard - Version 2.0
WRAP  .          NO                               :One line per depth step
~Well Information Block
#MNEM.UNIT       Data Type                        Information
#---------       ---------                        -------------------------------
STRT  .F         1900.00000                       :START DEPTH
STOP  .F         3700.00000                       :STOP DEPTH
STEP  .F          0.50000                         :INCREMENT
NULL  .          -999.25                          :NULL DATA VALUE
COMP  .                                           :COMPANY
WELL  .          Cinta_H-01                       :WELL
FLD   .          Cinta                            :FIELD
LOC   .                                           :LOCATION
PROV  .                                           :PROVINCE
STAT  .                                           :STATE
CNTY  .                                           :COUNTY
CTRY  .                                           :COUNTRY
DATE  .                                           :DATE
UWI   .          ID0100133000                     :UNIQUE WELL UWI
LIC   .                                           :LICENSE NUMBER
API   .                                           :API NUMBER
SRVC  .          SLB                              :SERVICE COMPANY
~Parameter Information Block
#MNEM.UNIT       Value                            Description
#---------       ---------                        -------------
LONG  .DEG       106.273981                       :Well Surface Location
LATI  .DEG       -5.423425                        :Well Surface Location
XWELL .M         308784.920000                    :X-coordinate of Well Head
YWELL .M         9400315.870000                   :Y-coordinate of Well Head
~Curve Information Block
#MNEM.UNIT       API Code            Curve    Description
#--------        --------------      -----    -------------------
DEPT  .F                             :0       Index
ILD   .OHMM                          :1       Induction Deep Resistivity    
RHOB  .G/C3                          :2       Bulk Density                  
DRHO  .G/C3                          :3       Bulk Density Correction       
CALI  .IN                            :4       Caliper                       
NPHI  .V/V                           :5       Thermal Neutron Porosity (original Ratio Method) in Selected Lithology
PROX  .OHMM                          :6       Proximity Resistivity (MPT)   
SN    .OHMM                          :7       Short Normal Resistivity (16 inch spacing)
SP    .MV                            :8       Spontaneous Potential         
GR    .GAPI                          :9       Gamma Ray                     
DT    .US/F                          :10      Delta-T (also called Slowness or Interval Transit Time)
~Ascii Data Section
# ...
   2888.00000       0.74630       2.17600       0.07600      13.07500       0.38685       1.25100       0.91600      32.58200      62.57500     135.84500 
   2888.50000       0.71635       2.15400       0.08800      13.22600       0.39004       1.03600       0.84300      32.24100      62.64400     138.84599 
   2889.00000       0.68665       2.14700       0.10400      13.43400       0.38446       1.08900       0.80400      31.81000      64.59300     141.43201 
   2889.50000       0.65911       2.12300       0.11200      13.54200       0.39960       1.08900       0.77600      32.54100      66.35400     143.62100 
   2890.00000       0.64893       2.09900       0.10800      13.59900       0.39920       1.05500       0.77900      33.58400      67.07500     144.01900 
   2890.50000       0.63644       2.07700       0.09500      13.72300       0.39960       1.03600       0.77900      33.63000      60.81100     141.76401 
   2891.00000       0.63158       2.10700       0.11500      13.82600       0.37649       1.03600       0.77500      33.57100      59.91600     107.54600 
   2891.50000       0.63690       2.09000       0.09900      13.84700       0.37729       1.06200       0.76000      33.69800      58.49200     140.03999 
   2892.00000       0.64893       2.08000       0.06600      13.85200       0.38693       1.10200       0.75300      33.51300      59.22600     138.84599 
   2892.50000       0.66374       2.10600       0.08900      13.85400       0.39721       1.14400       0.75300      33.20800      60.34000     139.50900 
   2893.00000       0.67925       2.12200       0.08900      13.85800       0.41155       1.13700       0.75300      32.47100      62.48200     140.17200 
   2893.50000       0.70065       2.11300       0.08000      13.87000       0.41235       1.08900       0.76000      32.63500      63.63700     140.17200 
   2894.00000       0.70654       2.11500       0.06900      13.94300       0.41155       1.14400       0.79900      33.60300      66.07700     138.29700 
   2894.50000       0.70457       2.12200       0.08800      13.95300       0.40837       1.27900       0.80500      33.63500      66.72100     136.85699 
   2895.00000       0.70000       2.11100       0.07200      13.88600       0.41235       1.34400       0.79300      33.44700      67.23400     139.64200 
   2895.50000       0.68665       2.09800       0.04900      13.83100       0.41155       1.26300       0.77900      32.88500      68.21200     143.75301 
   2896.00000       0.65969       2.07300       0.04100      13.75900       0.41793       1.01100       0.76500      33.17500      69.40300     156.48500 
   2896.50000       0.64560       2.06200       0.02600      13.69300       0.45127       0.92600       0.73300      33.08900      69.63800     167.43700 
   2897.00000       0.61714       2.03700       0.08100      13.75700       0.49442       1.04900       0.72700      32.39300      69.37900     176.91000 
   2897.50000       0.59574       1.95300       0.10200      13.91000       0.52709       1.01000       0.72600      32.29600      69.27300     176.11400 
   2898.00000       0.56041       1.86400       0.13600      14.06800       0.51753       1.02300       0.72200      32.80700      69.95300     173.46201 
   2898.50000       0.54955       1.82900       0.12500      14.41700       0.51355       0.97400       0.67200      33.11600      71.75100     170.80901 
   2899.00000       0.53465       1.89300       0.13000      16.20100       0.52170       0.99800       0.67200      32.82100      72.61200     175.71600 
   2899.50000       0.53127       1.93200       0.13000      15.75400       0.50558       0.95000       0.65200      32.82700      72.52200     167.05099 
   2900.00000       0.52317       1.95700       0.11800      15.06100       0.49522       0.91500       0.62700      33.10100      71.03800     161.12700 
   2900.50000       0.51675       2.02100       0.11600      15.47200       0.49283       0.92700       0.62100      32.97900      70.13200     166.30000 
   2901.00000       0.50909       2.04800       0.14100      14.53400       0.49920       0.94100       0.62100      32.89400      68.60200     162.12199 
   2901.50000       0.50636       2.01100       0.11600      14.64200       0.50080       0.96200       0.62100      32.30700      67.87600     169.48300 
   2902.00000       0.50909       2.00100       0.10500      14.66200       0.46653       0.93800       0.62100      32.32200      67.30200     167.89101 
   2902.50000       0.50978       2.01500       0.11100      14.55000       0.46574       0.91500       0.62100      33.07800      65.99000     161.62500 
   2903.00000       0.50909       2.02400       0.11500      14.51000       0.47610       0.91500       0.62100      33.39400      64.68800     159.60201 
   2903.50000       0.50772       2.03400       0.12700      14.50900       0.47689       0.95000       0.62000      33.38800      63.59000     158.60699 
   2904.00000       0.50299       2.04400       0.13500      14.43800       0.47610       0.96200       0.60000      32.85800      62.74900     158.67400 
   2904.50000       0.49967       2.05200       0.14500      14.27300       0.48884       0.90400       0.60300      32.84100      62.15900     159.13800 
   2905.00000       0.49770       2.04700       0.13700      14.27900       0.46574       0.90400       0.58700      33.36300      64.20700     159.13800 
   2905.50000       0.49657       2.04900       0.13200      14.30100       0.45777       0.90400       0.57400      33.11900      66.87900     159.00500 
   2906.00000       0.49866       2.05800       0.13700      14.38100       0.46255       0.90400       0.56800      32.60700      69.42200     158.87300 
   2906.50000       0.49932       2.05100       0.13700      14.32600       0.45777       0.90400       0.56700      33.12100      71.51600     158.87300 
   2907.00000       0.49991       2.03700       0.13300      14.27200       0.46813       0.92600       0.60300      34.14600      72.50200     148.26300 
   2907.50000       0.50033       2.00400       0.12700      14.25100       0.45936       0.91500       0.62000      34.67700      73.27700     149.98700 
   2908.00000       0.49967       1.99000       0.11600      14.10200       0.45299       0.96200       0.62200      34.72400      72.71000     158.47501 
   2908.50000       0.50025       1.98200       0.09900      13.96800       0.47052       0.96200       0.64700      34.36200      72.56800     157.94400 
   2909.00000       0.50080       1.96800       0.09000      13.73100       0.47131       0.96200       0.67200      34.12800      72.83100     155.95500 
   2909.50000       0.50501       1.95500       0.01700      13.53700       0.45618       0.97400       0.67400      33.92600      72.77300     146.80400 
   2910.00000       0.52174       1.99500       0.02700      13.48900       0.45936       0.91900       0.67400      33.79300      71.61500     147.95900 
   2910.50000       0.55547       2.01400       0.03300      13.47900       0.45219       0.87100       0.67300      33.33300      70.38400     150.11900 
   2911.00000       0.60239       2.01700       0.02000      13.59500       0.45219       0.84900       0.70800      32.93300      65.80500     152.37399 
   2911.50000       0.64297       2.04100       0.02800      13.62000       0.45697       0.88200       0.73100      33.01800      63.51400     151.04800 
   2912.00000       0.69282       2.06800       0.04800      14.13300       0.43506       1.06200       0.80000      33.16200      61.36400     146.27299 
   2912.50000       0.75104       2.07900       0.04200      14.46600       0.41713       1.37800       0.83900      33.29600      59.95900     139.44299 
   2913.00000       0.81996       2.10800       0.03800      14.45600       0.37809       2.43900       0.79900      33.63600      58.20500     132.14900 
   2913.50000       0.93913       2.15700       0.03000      12.76500       0.33586       1.97500       0.94900      34.27900      52.14700     124.98700 
